[
  {
    "gid": 3012874,
    "name": "Île-de-France",
    "lat": 48.7,
    "lon": 2.5,
    "fc": "ADM1",
    "type": "region",
    "ri": 3012874,
    "di": null,
    "region": "Île-de-France",
    "department": "",
    "population": 12271794
  },
  {
    "gid": 11071625,
    "name": "Auvergne-Rhône-Alpes",
    "lat": 45.482,
    "lon": 5.37437,
    "fc": "ADM1",
    "type": "region",
    "ri": 11071625,
    "di": null,
    "region": "Auvergne-Rhône-Alpes",
    "department": "",
    "population": 8163884
  },
  {
    "gid": 11071620,
    "name": "Nouvelle-Aquitaine",
    "lat": 46.09165,
    "lon": 1.26892,
    "fc": "ADM1",
    "type": "region",
    "ri": 11071620,
    "di": null,
    "region": "Nouvelle-Aquitaine",
    "department": "",
    "population": 6113384
  },
  {
    "gid": 11071624,
    "name": "Hauts-de-France",
    "lat": 49.61232,
    "lon": 2.65594,
    "fc": "ADM1",
    "type": "region",
    "ri": 11071624,
    "di": null,
    "region": "Hauts-de-France",
    "department": "",
    "population": 5998916
  },
  {
    "gid": 11071623,
    "name": "Occitanie",
    "lat": 44.02722,
    "lon": 1.63559,
    "fc": "ADM1",
    "type": "region",
    "ri": 11071623,
    "di": null,
    "region": "Occitanie",
    "department": "",
    "population": 5626858
  },
  {
    "gid": 11071622,
    "name": "Grand Est",
    "lat": 48.69821,
    "lon": 5.8667,
    "fc": "ADM1",
    "type": "region",
    "ri": 11071622,
    "di": null,
    "region": "Grand Est",
    "department": "",
    "population": 5560079
  },
  {
    "gid": 2985244,
    "name": "Provence-Alpes-Côte d'Azur",
    "lat": 43.91667,
    "lon": 6.08333,
    "fc": "ADM1",
    "type": "region",
    "ri": 2985244,
    "di": null,
    "region": "Provence-Alpes-Côte d'Azur",
    "department": "",
    "population": 5170312
  },
  {
    "gid": 3030293,
    "name": "Bretagne",
    "lat": 48.16667,
    "lon": -2.83333,
    "fc": "ADM1",
    "type": "region",
    "ri": 3030293,
    "di": null,
    "region": "Bretagne",
    "department": "",
    "population": 4829968
  },
  {
    "gid": 2988289,
    "name": "Pays de la Loire",
    "lat": 47.5,
    "lon": -0.83333,
    "fc": "ADM1",
    "type": "region",
    "ri": 2988289,
    "di": null,
    "region": "Pays de la Loire",
    "department": "",
    "population": 3879216
  },
  {
    "gid": 11071621,
    "name": "Normandie",
    "lat": 49.19906,
    "lon": 0.49988,
    "fc": "ADM1",
    "type": "region",
    "ri": 11071621,
    "di": null,
    "region": "Normandie",
    "department": "",
    "population": 3499280
  },
  {
    "gid": 11071619,
    "name": "Bourgogne-Franche-Comté",
    "lat": 47.06981,
    "lon": 5.04822,
    "fc": "ADM1",
    "type": "region",
    "ri": 11071619,
    "di": null,
    "region": "Bourgogne-Franche-Comté",
    "department": "",
    "population": 2803977
  },
  {
    "gid": 2990129,
    "name": "Département du Nord",
    "lat": 50.33333,
    "lon": 3.36197,
    "fc": "ADM2",
    "type": "department",
    "ri": 11071624,
    "di": 2990129,
    "region": "Hauts-de-France",
    "department": "Département du Nord",
    "population": 2616909
  },
  {
    "gid": 3027939,
    "name": "Centre-Val de Loire",
    "lat": 47.5,
    "lon": 1.75,
    "fc": "ADM1",
    "type": "region",
    "ri": 3027939,
    "di": null,
    "region": "Centre-Val de Loire",
    "department": "",
    "population": 2573180
  },
  {
    "gid": 2988507,
    "name": "Paris",
    "lat": 48.85341,
    "lon": 2.3488,
    "fc": "PPLC",
    "type": "city",
    "ri": 3012874,
    "di": 2968815,
    "region": "Île-de-France",
    "department": "Paris",
    "population": 2138551
  },
  {
    "gid": 3031359,
    "name": "Bouches-du-Rhône",
    "lat": 43.52366,
    "lon": 5.4245,
    "fc": "ADM2",
    "type": "department",
    "ri": 2985244,
    "di": 3031359,
    "region": "Provence-Alpes-Côte d'Azur",
    "department": "Bouches-du-Rhône",
    "population": 2069811
  },
  {
    "gid": 2968815,
    "name": "Paris",
    "lat": 48.8534,
    "lon": 2.3486,
    "fc": "ADM2",
    "type": "department",
    "ri": 3012874,
    "di": 2968815,
    "region": "Île-de-France",
    "department": "Paris",
    "population": 2048472
  },
  {
    "gid": 2987410,
    "name": "Rhône",
    "lat": 45.89126,
    "lon": 4.53039,
    "fc": "ADM2",
    "type": "department",
    "ri": 11071625,
    "di": 2987410,
    "region": "Auvergne-Rhône-Alpes",
    "department": "Rhône",
    "population": 1738949
  },
  {
    "gid": 2975246,
    "name": "Seine-Saint-Denis",
    "lat": 48.91421,
    "lon": 2.47604,
    "fc": "ADM2",
    "type": "department",
    "ri": 3012874,
    "di": 2975246,
    "region": "Île-de-France",
    "department": "Seine-Saint-Denis",
    "population": 1681725
  },
  {
    "gid": 3015948,
    "name": "Gironde",
    "lat": 44.69306,
    "lon": -0.414,
    "fc": "ADM2",
    "type": "department",
    "ri": 11071620,
    "di": 3015948,
    "region": "Nouvelle-Aquitaine",
    "department": "Gironde",
    "population": 1674980
  },
  {
    "gid": 3013657,
    "name": "Hauts-de-Seine",
    "lat": 48.85,
    "lon": 2.19293,
    "fc": "ADM2",
    "type": "department",
    "ri": 3012874,
    "di": 3013657,
    "region": "Île-de-France",
    "department": "Hauts-de-Seine",
    "population": 1647435
  },
  {
    "gid": 2997861,
    "name": "Loire-Atlantique",
    "lat": 47.32863,
    "lon": -1.65764,
    "fc": "ADM2",
    "type": "department",
    "ri": 2988289,
    "di": 2997861,
    "region": "Pays de la Loire",
    "department": "Loire-Atlantique",
    "population": 1473156
  },
  {
    "gid": 2967196,
    "name": "Yvelines",
    "lat": 48.80546,
    "lon": 1.85696,
    "fc": "ADM2",
    "type": "department",
    "ri": 3012874,
    "di": 2967196,
    "region": "Île-de-France",
    "department": "Yvelines",
    "population": 1470778
  },
  {
    "gid": 2988430,
    "name": "Pas-de-Calais",
    "lat": 50.4828,
    "lon": 2.28664,
    "fc": "ADM2",
    "type": "department",
    "ri": 11071624,
    "di": 2988430,
    "region": "Hauts-de-France",
    "department": "Pas-de-Calais",
    "population": 1460184
  },
  {
    "gid": 3013767,
    "name": "Upper Garonne",
    "lat": 43.38724,
    "lon": 1.22191,
    "fc": "ADM2",
    "type": "department",
    "ri": 11071623,
    "di": 3013767,
    "region": "Occitanie",
    "department": "Upper Garonne",
    "population": 1456261
  },
  {
    "gid": 2975249,
    "name": "Seine-et-Marne",
    "lat": 48.64599,
    "lon": 2.95905,
    "fc": "ADM2",
    "type": "department",
    "ri": 3012874,
    "di": 2975249,
    "region": "Île-de-France",
    "department": "Seine-et-Marne",
    "population": 1452399
  },
  {
    "gid": 2971090,
    "name": "Val-de-Marne",
    "lat": 48.78149,
    "lon": 2.49331,
    "fc": "ADM2",
    "type": "department",
    "ri": 3012874,
    "di": 2971090,
    "region": "Île-de-France",
    "department": "Val-de-Marne",
    "population": 1419531
  },
  {
    "gid": 3019599,
    "name": "Essonne",
    "lat": 48.5,
    "lon": 2.25,
    "fc": "ADM2",
    "type": "department",
    "ri": 3012874,
    "di": 3019599,
    "region": "Île-de-France",
    "department": "Essonne",
    "population": 1324546
  },
  {
    "gid": 3012715,
    "name": "Isère",
    "lat": 45.16667,
    "lon": 5.83333,
    "fc": "ADM2",
    "type": "department",
    "ri": 11071625,
    "di": 3012715,
    "region": "Auvergne-Rhône-Alpes",
    "department": "Isère",
    "population": 1291380
  },
  {
    "gid": 2971071,
    "name": "Val d'Oise",
    "lat": 49.07891,
    "lon": 2.17673,
    "fc": "ADM2",
    "type": "department",
    "ri": 3012874,
    "di": 2971071,
    "region": "Île-de-France",
    "department": "Val d'Oise",
    "population": 1270845
  },
  {
    "gid": 2975248,
    "name": "Seine-Maritime",
    "lat": 49.67278,
    "lon": 1.12519,
    "fc": "ADM2",
    "type": "department",
    "ri": 11071621,
    "di": 2975248,
    "region": "Normandie",
    "department": "Seine-Maritime",
    "population": 1260205
  },
  {
    "gid": 3013500,
    "name": "Hérault",
    "lat": 43.66667,
    "lon": 3.5,
    "fc": "ADM2",
    "type": "department",
    "ri": 11071623,
    "di": 3013500,
    "region": "Occitanie",
    "department": "Hérault",
    "population": 1217331
  },
  {
    "gid": 3034720,
    "name": "Bas-Rhin",
    "lat": 48.65693,
    "lon": 7.56346,
    "fc": "ADM2",
    "type": "department",
    "ri": 11071622,
    "di": 3034720,
    "region": "Grand Est",
    "department": "Bas-Rhin",
    "population": 1156963
  },
  {
    "gid": 3038049,
    "name": "Alpes-Maritimes",
    "lat": 43.91307,
    "lon": 7.20436,
    "fc": "ADM2",
    "type": "department",
    "ri": 2985244,
    "di": 3038049,
    "region": "Provence-Alpes-Côte d'Azur",
    "department": "Alpes-Maritimes",
    "population": 1114579
  },
  {
    "gid": 3012849,
    "name": "Ille-et-Vilaine",
    "lat": 48.16667,
    "lon": -1.5,
    "fc": "ADM2",
    "type": "department",
    "ri": 3030293,
    "di": 3012849,
    "region": "Bretagne",
    "department": "Ille-et-Vilaine",
    "population": 1109232
  },
  {
    "gid": 2970749,
    "name": "Var",
    "lat": 43.4586,
    "lon": 6.29145,
    "fc": "ADM2",
    "type": "department",
    "ri": 2985244,
    "di": 2970749,
    "region": "Provence-Alpes-Côte d'Azur",
    "department": "Var",
    "population": 1108364
  },
  {
    "gid": 2991627,
    "name": "Moselle",
    "lat": 49.04177,
    "lon": 6.58355,
    "fc": "ADM2",
    "type": "department",
    "ri": 11071622,
    "di": 2991627,
    "region": "Grand Est",
    "department": "Moselle",
    "population": 1066328
  },
  {
    "gid": 3018471,
    "name": "Finistère",
    "lat": 48.25224,
    "lon": -3.99263,
    "fc": "ADM2",
    "type": "department",
    "ri": 3030293,
    "di": 3018471,
    "region": "Bretagne",
    "department": "Finistère",
    "population": 927912
  },
  {
    "gid": 2995469,
    "name": "Marseille",
    "lat": 43.29695,
    "lon": 5.38107,
    "fc": "PPLA",
    "type": "city",
    "ri": 2985244,
    "di": 3031359,
    "region": "Provence-Alpes-Côte d'Azur",
    "department": "Bouches-du-Rhône",
    "population": 877215
  },
  {
    "gid": 3013736,
    "name": "Haute-Savoie",
    "lat": 46.06143,
    "lon": 6.45374,
    "fc": "ADM2",
    "type": "department",
    "ri": 11071625,
    "di": 3013736,
    "region": "Auvergne-Rhône-Alpes",
    "department": "Haute-Savoie",
    "population": 849583
  },
  {
    "gid": 2989663,
    "name": "Oise",
    "lat": 49.5,
    "lon": 2.5,
    "fc": "ADM2",
    "type": "department",
    "ri": 11071624,
    "di": 2989663,
    "region": "Hauts-de-France",
    "department": "Oise",
    "population": 830725
  },
  {
    "gid": 2996663,
    "name": "Maine-et-Loire",
    "lat": 47.38911,
    "lon": -0.49984,
    "fc": "ADM2",
    "type": "department",
    "ri": 2988289,
    "di": 2996663,
    "region": "Pays de la Loire",
    "department": "Maine-et-Loire",
    "population": 828151
  },
  {
    "gid": 2991879,
    "name": "Morbihan",
    "lat": 47.84765,
    "lon": -2.7776,
    "fc": "ADM2",
    "type": "department",
    "ri": 3030293,
    "di": 2991879,
    "region": "Bretagne",
    "department": "Morbihan",
    "population": 776103
  },
  {
    "gid": 2997870,
    "name": "Loire",
    "lat": 45.47169,
    "lon": 4.43298,
    "fc": "ADM2",
    "type": "department",
    "ri": 11071625,
    "di": 2997870,
    "region": "Auvergne-Rhône-Alpes",
    "department": "Loire",
    "population": 772041
  },
  {
    "gid": 3013663,
    "name": "Haut-Rhin",
    "lat": 47.87603,
    "lon": 7.2719,
    "fc": "ADM2",
    "type": "department",
    "ri": 11071622,
    "di": 3013663,
    "region": "Grand Est",
    "department": "Haut-Rhin",
    "population": 767800
  },
  {
    "gid": 3016670,
    "name": "Gard",
    "lat": 44.0179,
    "lon": 4.28751,
    "fc": "ADM2",
    "type": "department",
    "ri": 11071623,
    "di": 3016670,
    "region": "Occitanie",
    "department": "Gard",
    "population": 764010
  },
  {
    "gid": 2994111,
    "name": "Meurthe et Moselle",
    "lat": 48.65082,
    "lon": 6.1566,
    "fc": "ADM2",
    "type": "department",
    "ri": 11071622,
    "di": 2994111,
    "region": "Grand Est",
    "department": "Meurthe et Moselle",
    "population": 745134
  },
  {
    "gid": 2970140,
    "name": "Vendée",
    "lat": 46.64169,
    "lon": -1.30407,
    "fc": "ADM2",
    "type": "department",
    "ri": 2988289,
    "di": 2970140,
    "region": "Pays de la Loire",
    "department": "Vendée",
    "population": 706343
  },
  {
    "gid": 3029094,
    "name": "Calvados",
    "lat": 49.09011,
    "lon": -0.30608,
    "fc": "ADM2",
    "type": "department",
    "ri": 11071621,
    "di": 3029094,
    "region": "Normandie",
    "department": "Calvados",
    "population": 704605
  },
  {
    "gid": 2984887,
    "name": "Pyrénées-Atlantiques",
    "lat": 43.23587,
    "lon": -0.81642,
    "fc": "ADM2",
    "type": "department",
    "ri": 11071620,
    "di": 2984887,
    "region": "Nouvelle-Aquitaine",
    "department": "Pyrénées-Atlantiques",
    "population": 699473
  },
  {
    "gid": 2997857,
    "name": "Loiret",
    "lat": 47.93598,
    "lon": 2.30173,
    "fc": "ADM2",
    "type": "department",
    "ri": 3027939,
    "di": 2997857,
    "region": "Centre-Val de Loire",
    "department": "Loiret",
    "population": 687063
  },
  {
    "gid": 3038422,
    "name": "Ain",
    "lat": 46.16667,
    "lon": 5.33333,
    "fc": "ADM2",
    "type": "department",
    "ri": 11071625,
    "di": 3038422,
    "region": "Auvergne-Rhône-Alpes",
    "department": "Ain",
    "population": 671289
  },
  {
    "gid": 3026644,
    "name": "Charente-Maritime",
    "lat": 45.75556,
    "lon": -0.71314,
    "fc": "ADM2",
    "type": "department",
    "ri": 11071620,
    "di": 3026644,
    "region": "Nouvelle-Aquitaine",
    "department": "Charente-Maritime",
    "population": 668160
  },
  {
    "gid": 2984986,
    "name": "Puy-de-Dôme",
    "lat": 45.70549,
    "lon": 3.146,
    "fc": "ADM2",
    "type": "department",
    "ri": 11071625,
    "di": 2984986,
    "region": "Auvergne-Rhône-Alpes",
    "department": "Puy-de-Dôme",
    "population": 664385
  },
  {
    "gid": 3012804,
    "name": "Indre-et-Loire",
    "lat": 47.25,
    "lon": 0.75,
    "fc": "ADM2",
    "type": "department",
    "ri": 3027939,
    "di": 3012804,
    "region": "Centre-Val de Loire",
    "department": "Indre-et-Loire",
    "population": 616326
  },
  {
    "gid": 3023414,
    "name": "Côtes-d'Armor",
    "lat": 48.34295,
    "lon": -2.78216,
    "fc": "ADM2",
    "type": "department",
    "ri": 3030293,
    "di": 3023414,
    "region": "Bretagne",
    "department": "Côtes-d'Armor",
    "population": 609598
  },
  {
    "gid": 3019317,
    "name": "Eure",
    "lat": 49.16667,
    "lon": 1.0,
    "fc": "ADM2",
    "type": "department",
    "ri": 11071621,
    "di": 3019317,
    "region": "Normandie",
    "department": "Eure",
    "population": 601305
  },
  {
    "gid": 2995603,
    "name": "Marne",
    "lat": 48.99116,
    "lon": 4.25966,
    "fc": "ADM2",
    "type": "department",
    "ri": 11071622,
    "di": 2995603,
    "region": "Grand Est",
    "department": "Marne",
    "population": 580402
  },
  {
    "gid": 2970554,
    "name": "Département du Vaucluse",
    "lat": 44.0,
    "lon": 5.16667,
    "fc": "ADM2",
    "type": "department",
    "ri": 2985244,
    "di": 2970554,
    "region": "Provence-Alpes-Côte d'Azur",
    "department": "Département du Vaucluse",
    "population": 568702
  },
  {
    "gid": 2975926,
    "name": "Sarthe",
    "lat": 48.00493,
    "lon": 0.26516,
    "fc": "ADM2",
    "type": "department",
    "ri": 2988289,
    "di": 2975926,
    "region": "Pays de la Loire",
    "department": "Sarthe",
    "population": 566129
  },
  {
    "gid": 2974304,
    "name": "Somme",
    "lat": 49.93141,
    "lon": 2.27639,
    "fc": "ADM2",
    "type": "department",
    "ri": 11071624,
    "di": 2974304,
    "region": "Hauts-de-France",
    "department": "Somme",
    "population": 565540
  },
  {
    "gid": 2976082,
    "name": "Saône-et-Loire",
    "lat": 46.63646,
    "lon": 4.58819,
    "fc": "ADM2",
    "type": "department",
    "ri": 11071619,
    "di": 2976082,
    "region": "Bourgogne-Franche-Comté",
    "department": "Saône-et-Loire",
    "population": 549136
  },
  {
    "gid": 3020989,
    "name": "Doubs",
    "lat": 47.19967,
    "lon": 6.43487,
    "fc": "ADM2",
    "type": "department",
    "ri": 11071619,
    "di": 3020989,
    "region": "Bourgogne-Franche-Comté",
    "department": "Doubs",
    "population": 541454
  },
  {
    "gid": 3023423,
    "name": "Cote d'Or",
    "lat": 47.5,
    "lon": 4.83333,
    "fc": "ADM2",
    "type": "department",
    "ri": 11071619,
    "di": 3023423,
    "region": "Bourgogne-Franche-Comté",
    "department": "Cote d'Or",
    "population": 537577
  },
  {
    "gid": 3038375,
    "name": "Aisne",
    "lat": 49.5,
    "lon": 3.5,
    "fc": "ADM2",
    "type": "department",
    "ri": 11071624,
    "di": 3038375,
    "region": "Hauts-de-France",
    "department": "Aisne",
    "population": 525558
  },
  {
    "gid": 3020781,
    "name": "Drôme",
    "lat": 44.69971,
    "lon": 5.16521,
    "fc": "ADM2",
    "type": "department",
    "ri": 11071625,
    "di": 3020781,
    "region": "Auvergne-Rhône-Alpes",
    "department": "Drôme",
    "population": 521432
  },
  {
    "gid": 2996944,
    "name": "Lyon",
    "lat": 45.74906,
    "lon": 4.84789,
    "fc": "PPLA",
    "type": "city",
    "ri": 11071625,
    "di": 2987410,
    "region": "Auvergne-Rhône-Alpes",
    "department": "Rhône",
    "population": 520774
  },
  {
    "gid": 2972315,
    "name": "Toulouse",
    "lat": 43.60426,
    "lon": 1.44367,
    "fc": "PPLA",
    "type": "city",
    "ri": 11071623,
    "di": 3013767,
    "region": "Occitanie",
    "department": "Upper Garonne",
    "population": 511684
  },
  {
    "gid": 2996268,
    "name": "Manche",
    "lat": 49.03822,
    "lon": -1.31865,
    "fc": "ADM2",
    "type": "department",
    "ri": 11071621,
    "di": 2996268,
    "region": "Normandie",
    "department": "Manche",
    "population": 496815
  },
  {
    "gid": 2984885,
    "name": "Pyrénées-Orientales",
    "lat": 42.60075,
    "lon": 2.58889,
    "fc": "ADM2",
    "type": "department",
    "ri": 11071623,
    "di": 2984885,
    "region": "Occitanie",
    "department": "Pyrénées-Orientales",
    "population": 492964
  },
  {
    "gid": 2975517,
    "name": "Savoie",
    "lat": 45.46805,
    "lon": 6.48547,
    "fc": "ADM2",
    "type": "department",
    "ri": 11071625,
    "di": 2975517,
    "region": "Auvergne-Rhône-Alpes",
    "department": "Savoie",
    "population": 445288
  },
  {
    "gid": 2969280,
    "name": "Vienne",
    "lat": 46.53528,
    "lon": 0.45201,
    "fc": "ADM2",
    "type": "department",
    "ri": 11071620,
    "di": 2969280,
    "region": "Nouvelle-Aquitaine",
    "department": "Vienne",
    "population": 437586
  },
  {
    "gid": 3019316,
    "name": "Eure-et-Loir",
    "lat": 48.5,
    "lon": 1.5,
    "fc": "ADM2",
    "type": "department",
    "ri": 3027939,
    "di": 3019316,
    "region": "Centre-Val de Loire",
    "department": "Eure-et-Loir",
    "population": 432950
  },
  {
    "gid": 3007866,
    "name": "Landes",
    "lat": 43.97543,
    "lon": -0.74241,
    "fc": "ADM2",
    "type": "department",
    "ri": 11071620,
    "di": 3007866,
    "region": "Nouvelle-Aquitaine",
    "department": "Landes",
    "population": 428427
  },
  {
    "gid": 3021042,
    "name": "Dordogne",
    "lat": 45.12735,
    "lon": 0.73504,
    "fc": "ADM2",
    "type": "department",
    "ri": 11071620,
    "di": 3021042,
    "region": "Nouvelle-Aquitaine",
    "department": "Dordogne",
    "population": 416325
  },
  {
    "gid": 2973362,
    "name": "Tarn",
    "lat": 43.7817,
    "lon": 2.16317,
    "fc": "ADM2",
    "type": "department",
    "ri": 11071623,
    "di": 2973362,
    "region": "Occitanie",
    "department": "Tarn",
    "population": 396168
  },
  {
    "gid": 3036264,
    "name": "Aude",
    "lat": 43.08333,
    "lon": 2.5,
    "fc": "ADM2",
    "type": "department",
    "ri": 11071623,
    "di": 3036264,
    "region": "Occitanie",
    "department": "Aude",
    "population": 377773
  },
  {
    "gid": 3021501,
    "name": "Deux-Sèvres",
    "lat": 46.53918,
    "lon": -0.30838,
    "fc": "ADM2",
    "type": "department",
    "ri": 11071620,
    "di": 3021501,
    "region": "Nouvelle-Aquitaine",
    "department": "Deux-Sèvres",
    "population": 375415
  },
  {
    "gid": 3013719,
    "name": "Haute-Vienne",
    "lat": 45.88341,
    "lon": 1.21781,
    "fc": "ADM2",
    "type": "department",
    "ri": 11071620,
    "di": 3013719,
    "region": "Nouvelle-Aquitaine",
    "department": "Haute-Vienne",
    "population": 372438
  },
  {
    "gid": 2967681,
    "name": "Vosges",
    "lat": 48.19161,
    "lon": 6.40533,
    "fc": "ADM2",
    "type": "department",
    "ri": 11071622,
    "di": 2967681,
    "region": "Grand Est",
    "department": "Vosges",
    "population": 358700
  },
  {
    "gid": 3023519,
    "name": "Corse",
    "lat": 42.06153,
    "lon": 8.9542,
    "fc": "ADM1",
    "type": "region",
    "ri": 3023519,
    "di": null,
    "region": "Corse",
    "department": "",
    "population": 355528
  },
  {
    "gid": 3026646,
    "name": "Charente",
    "lat": 45.70598,
    "lon": 0.18162,
    "fc": "ADM2",
    "type": "department",
    "ri": 11071620,
    "di": 3026646,
    "region": "Nouvelle-Aquitaine",
    "department": "Charente",
    "population": 351778
  },
  {
    "gid": 2990440,
    "name": "Nice",
    "lat": 43.70313,
    "lon": 7.26608,
    "fc": "PPLA2",
    "type": "city",
    "ri": 2985244,
    "di": 3038049,
    "region": "Provence-Alpes-Côte d'Azur",
    "department": "Alpes-Maritimes",
    "population": 342669
  },
  {
    "gid": 3038111,
    "name": "Allier",
    "lat": 46.5,
    "lon": 3.0,
    "fc": "ADM2",
    "type": "department",
    "ri": 11071625,
    "di": 3038111,
    "region": "Auvergne-Rhône-Alpes",
    "department": "Allier",
    "population": 334715
  },
  {
    "gid": 2967222,
    "name": "Yonne",
    "lat": 47.91667,
    "lon": 3.75,
    "fc": "ADM2",
    "type": "department",
    "ri": 11071619,
    "di": 2967222,
    "region": "Bourgogne-Franche-Comté",
    "department": "Yonne",
    "population": 333896
  },
  {
    "gid": 3037147,
    "name": "Ardèche",
    "lat": 44.66667,
    "lon": 4.33333,
    "fc": "ADM2",
    "type": "department",
    "ri": 11071625,
    "di": 3037147,
    "region": "Auvergne-Rhône-Alpes",
    "department": "Ardèche",
    "population": 333229
  },
  {
    "gid": 2997523,
    "name": "Lot-et-Garonne",
    "lat": 44.33333,
    "lon": 0.5,
    "fc": "ADM2",
    "type": "department",
    "ri": 11071620,
    "di": 2997523,
    "region": "Nouvelle-Aquitaine",
    "department": "Lot-et-Garonne",
    "population": 332226
  },
  {
    "gid": 2997856,
    "name": "Loire-et-Cher",
    "lat": 47.5,
    "lon": 1.5,
    "fc": "ADM2",
    "type": "department",
    "ri": 3027939,
    "di": 2997856,
    "region": "Centre-Val de Loire",
    "department": "Loire-et-Cher",
    "population": 328953
  },
  {
    "gid": 2990969,
    "name": "Nantes",
    "lat": 47.21725,
    "lon": -1.55336,
    "fc": "PPLA",
    "type": "city",
    "ri": 2988289,
    "di": 2997861,
    "region": "Pays de la Loire",
    "department": "Loire-Atlantique",
    "population": 325070
  },
  {
    "gid": 12278193,
    "name": "Marne La Vallée",
    "lat": 48.83584,
    "lon": 2.64241,
    "fc": "PPL",
    "type": "city",
    "ri": 3012874,
    "di": null,
    "region": "Île-de-France",
    "department": "",
    "population": 318325
  },
  {
    "gid": 3036420,
    "name": "Aube",
    "lat": 48.25,
    "lon": 4.08333,
    "fc": "ADM2",
    "type": "department",
    "ri": 11071622,
    "di": 3036420,
    "region": "Grand Est",
    "department": "Aube",
    "population": 310020
  },
  {
    "gid": 2994932,
    "name": "Mayenne",
    "lat": 48.13494,
    "lon": -0.66667,
    "fc": "ADM2",
    "type": "department",
    "ri": 2988289,
    "di": 2994932,
    "region": "Pays de la Loire",
    "department": "Mayenne",
    "population": 305437
  },
  {
    "gid": 3025480,
    "name": "Cher",
    "lat": 47.11304,
    "lon": 2.50983,
    "fc": "ADM2",
    "type": "department",
    "ri": 3027939,
    "di": 3025480,
    "region": "Centre-Val de Loire",
    "department": "Cher",
    "population": 299496
  },
  {
    "gid": 3035691,
    "name": "Aveyron",
    "lat": 44.25,
    "lon": 2.5,
    "fc": "ADM2",
    "type": "department",
    "ri": 11071623,
    "di": 3035691,
    "region": "Occitanie",
    "department": "Aveyron",
    "population": 279736
  },
  {
    "gid": 2989247,
    "name": "Orne",
    "lat": 48.66667,
    "lon": 0.08333,
    "fc": "ADM2",
    "type": "department",
    "ri": 11071621,
    "di": 2989247,
    "region": "Normandie",
    "department": "Orne",
    "population": 276144
  },
  {
    "gid": 2973783,
    "name": "Strasbourg",
    "lat": 48.58392,
    "lon": 7.74553,
    "fc": "PPLA",
    "type": "city",
    "ri": 11071622,
    "di": 3034720,
    "region": "Grand Est",
    "department": "Bas-Rhin",
    "population": 274845
  },
  {
    "gid": 3037136,
    "name": "Ardennes",
    "lat": 49.63202,
    "lon": 4.65369,
    "fc": "ADM2",
    "type": "department",
    "ri": 11071622,
    "di": 3037136,
    "region": "Grand Est",
    "department": "Ardennes",
    "population": 271845
  },
  {
    "gid": 3031582,
    "name": "Bordeaux",
    "lat": 44.84124,
    "lon": -0.58046,
    "fc": "PPLA",
    "type": "city",
    "ri": 11071620,
    "di": 3015948,
    "region": "Nouvelle-Aquitaine",
    "department": "Gironde",
    "population": 265328
  },
  {
    "gid": 2973357,
    "name": "Tarn-et-Garonne",
    "lat": 44.0,
    "lon": 1.16667,
    "fc": "ADM2",
    "type": "department",
    "ri": 11071623,
    "di": 2973357,
    "region": "Occitanie",
    "department": "Tarn-et-Garonne",
    "population": 264924
  },
  {
    "gid": 3012051,
    "name": "Jura",
    "lat": 46.73431,
    "lon": 5.72349,
    "fc": "ADM2",
    "type": "department",
    "ri": 11071619,
    "di": 3012051,
    "region": "Bourgogne-Franche-Comté",
    "department": "Jura",
    "population": 258405
  },
  {
    "gid": 2992166,
    "name": "Montpellier",
    "lat": 43.61093,
    "lon": 3.87635,
    "fc": "PPLA2",
    "type": "city",
    "ri": 11071623,
    "di": 3013500,
    "region": "Occitanie",
    "department": "Hérault",
    "population": 248252
  },
  {
    "gid": 3023532,
    "name": "Corrèze",
    "lat": 45.34754,
    "lon": 1.87319,
    "fc": "ADM2",
    "type": "department",
    "ri": 11071620,
    "di": 3023532,
    "region": "Nouvelle-Aquitaine",
    "department": "Corrèze",
    "population": 240120
  },
  {
    "gid": 2998324,
    "name": "Lille",
    "lat": 50.63391,
    "lon": 3.05512,
    "fc": "PPLA",
    "type": "city",
    "ri": 11071624,
    "di": 2990129,
    "region": "Hauts-de-France",
    "department": "Département du Nord",
    "population": 238695
  },
  {
    "gid": 3013737,
    "name": "Haute-Saône",
    "lat": 47.67625,
    "lon": 6.10066,
    "fc": "ADM2",
    "type": "department",
    "ri": 11071619,
    "di": 3013737,
    "region": "Bourgogne-Franche-Comté",
    "department": "Haute-Saône",
    "population": 233920
  },
  {
    "gid": 3013726,
    "name": "Hautes-Pyrénées",
    "lat": 43.03686,
    "lon": 0.18632,
    "fc": "ADM2",
    "type": "department",
    "ri": 11071623,
    "di": 3013726,
    "region": "Occitanie",
    "department": "Hautes-Pyrénées",
    "population": 231453
  },
  {
    "gid": 3013760,
    "name": "Haute-Loire",
    "lat": 45.11001,
    "lon": 3.8394,
    "fc": "ADM2",
    "type": "department",
    "ri": 11071625,
    "di": 3013760,
    "region": "Auvergne-Rhône-Alpes",
    "department": "Haute-Loire",
    "population": 228161
  },
  {
    "gid": 2983990,
    "name": "Rennes",
    "lat": 48.11109,
    "lon": -1.67431,
    "fc": "PPLA",
    "type": "city",
    "ri": 3030293,
    "di": 3012849,
    "region": "Bretagne",
    "department": "Ille-et-Vilaine",
    "population": 227830
  },
  {
    "gid": 3012805,
    "name": "Indre",
    "lat": 46.83333,
    "lon": 1.66667,
    "fc": "ADM2",
    "type": "department",
    "ri": 3027939,
    "di": 3012805,
    "region": "Centre-Val de Loire",
    "department": "Indre",
    "population": 216809
  },
  {
    "gid": 2990371,
    "name": "Nièvre",
    "lat": 47.11695,
    "lon": 3.49192,
    "fc": "ADM2",
    "type": "department",
    "ri": 11071619,
    "di": 2990371,
    "region": "Bourgogne-Franche-Comté",
    "department": "Nièvre",
    "population": 202299
  },
  {
    "gid": 2994106,
    "name": "Meuse",
    "lat": 48.97176,
    "lon": 5.36371,
    "fc": "ADM2",
    "type": "department",
    "ri": 11071622,
    "di": 2994106,
    "region": "Grand Est",
    "department": "Meuse",
    "population": 200417
  },
  {
    "gid": 2984114,
    "name": "Reims",
    "lat": 49.26526,
    "lon": 4.02853,
    "fc": "PPLA3",
    "type": "city",
    "ri": 11071622,
    "di": 2995603,
    "region": "Grand Est",
    "department": "Marne",
    "population": 196565
  },
  {
    "gid": 3016194,
    "name": "Gers",
    "lat": 43.71731,
    "lon": 0.45422,
    "fc": "ADM2",
    "type": "department",
    "ri": 11071623,
    "di": 3016194,
    "region": "Occitanie",
    "department": "Gers",
    "population": 192649
  },
  {
    "gid": 3003796,
    "name": "Le Havre",
    "lat": 49.49346,
    "lon": 0.10785,
    "fc": "PPLA3",
    "type": "city",
    "ri": 11071621,
    "di": 2975248,
    "region": "Normandie",
    "department": "Seine-Maritime",
    "population": 185972
  },
  {
    "gid": 3013793,
    "name": "Upper Corsica",
    "lat": 42.41667,
    "lon": 9.16667,
    "fc": "ADM2",
    "type": "department",
    "ri": 3023519,
    "di": 3013793,
    "region": "Corse",
    "department": "Upper Corsica",
    "population": 185231
  },
  {
    "gid": 8555643,
    "name": "Cergy-Pontoise",
    "lat": 49.03894,
    "lon": 2.07805,
    "fc": "PPLL",
    "type": "city",
    "ri": 3012874,
    "di": 2971071,
    "region": "Île-de-France",
    "department": "Val d'Oise",
    "population": 183430
  },
  {
    "gid": 12808673,
    "name": "Paris 13e Arrondissement",
    "lat": 48.8262,
    "lon": 2.35986,
    "fc": "PPLX",
    "type": "city",
    "ri": 3012874,
    "di": 2968815,
    "region": "Île-de-France",
    "department": "Paris",
    "population": 177833
  },
  {
    "gid": 2980291,
    "name": "Saint-Étienne",
    "lat": 45.43389,
    "lon": 4.39,
    "fc": "PPLA2",
    "type": "city",
    "ri": 11071625,
    "di": 2997870,
    "region": "Auvergne-Rhône-Alpes",
    "department": "Loire",
    "population": 176280
  },
  {
    "gid": 2997524,
    "name": "Lot",
    "lat": 44.62703,
    "lon": 1.63461,
    "fc": "ADM2",
    "type": "department",
    "ri": 11071623,
    "di": 2997524,
    "region": "Occitanie",
    "department": "Lot",
    "population": 175620
  },
  {
    "gid": 3013757,
    "name": "Haute-Marne",
    "lat": 48.12019,
    "lon": 5.24038,
    "fc": "ADM2",
    "type": "department",
    "ri": 11071622,
    "di": 3013757,
    "region": "Grand Est",
    "department": "Haute-Marne",
    "population": 169865
  },
  {
    "gid": 2972328,
    "name": "Toulon",
    "lat": 43.12442,
    "lon": 5.92836,
    "fc": "PPLA2",
    "type": "city",
    "ri": 2985244,
    "di": 2970749,
    "region": "Provence-Alpes-Côte d'Azur",
    "department": "Var",
    "population": 168701
  },
  {
    "gid": 3037656,
    "name": "Angers",
    "lat": 47.47156,
    "lon": -0.55202,
    "fc": "PPLA2",
    "type": "city",
    "ri": 2988289,
    "di": 2996663,
    "region": "Pays de la Loire",
    "department": "Maine-et-Loire",
    "population": 168279
  },
  {
    "gid": 3038050,
    "name": "Alpes-de-Haute-Provence",
    "lat": 44.09829,
    "lon": 6.26537,
    "fc": "ADM2",
    "type": "department",
    "ri": 2985244,
    "di": 3038050,
    "region": "Provence-Alpes-Côte d'Azur",
    "department": "Alpes-de-Haute-Provence",
    "population": 167179
  },
  {
    "gid": 3023514,
    "name": "South Corsica",
    "lat": 41.91667,
    "lon": 9.16667,
    "fc": "ADM2",
    "type": "department",
    "ri": 3023519,
    "di": 3023514,
    "region": "Corse",
    "department": "South Corsica",
    "population": 166045
  },
  {
    "gid": 3021372,
    "name": "Dijon",
    "lat": 47.31344,
    "lon": 5.01391,
    "fc": "PPLA",
    "type": "city",
    "ri": 11071619,
    "di": 3023423,
    "region": "Bourgogne-Franche-Comté",
    "department": "Cote d'Or",
    "population": 159941
  },
  {
    "gid": 3014728,
    "name": "Grenoble",
    "lat": 45.17869,
    "lon": 5.71479,
    "fc": "PPLA2",
    "type": "city",
    "ri": 11071625,
    "di": 3012715,
    "region": "Auvergne-Rhône-Alpes",
    "department": "Isère",
    "population": 158552
  },
  {
    "gid": 3036965,
    "name": "Ariège",
    "lat": 43.0,
    "lon": 1.5,
    "fc": "ADM2",
    "type": "department",
    "ri": 11071623,
    "di": 3036965,
    "region": "Occitanie",
    "department": "Ariège",
    "population": 155339
  },
  {
    "gid": 2990363,
    "name": "Nîmes",
    "lat": 43.83665,
    "lon": 4.35788,
    "fc": "PPLA2",
    "type": "city",
    "ri": 11071623,
    "di": 3016670,
    "region": "Occitanie",
    "department": "Gard",
    "population": 148236
  },
  {
    "gid": 3024635,
    "name": "Clermont-Ferrand",
    "lat": 45.77969,
    "lon": 3.08682,
    "fc": "PPLA2",
    "type": "city",
    "ri": 11071625,
    "di": 2984986,
    "region": "Auvergne-Rhône-Alpes",
    "department": "Puy-de-Dôme",
    "population": 147865
  },
  {
    "gid": 3038354,
    "name": "Aix-en-Provence",
    "lat": 43.5283,
    "lon": 5.44973,
    "fc": "PPLA3",
    "type": "city",
    "ri": 2985244,
    "di": 3031359,
    "region": "Provence-Alpes-Côte d'Azur",
    "department": "Bouches-du-Rhône",
    "population": 146821
  },
  {
    "gid": 8533870,
    "name": "Saint-Quentin-en-Yvelines",
    "lat": 48.77186,
    "lon": 2.01891,
    "fc": "PPL",
    "type": "city",
    "ri": 3012874,
    "di": 2967196,
    "region": "Île-de-France",
    "department": "Yvelines",
    "population": 146598
  },
  {
    "gid": 3030300,
    "name": "Brest",
    "lat": 48.39029,
    "lon": -4.48628,
    "fc": "PPLA3",
    "type": "city",
    "ri": 3030293,
    "di": 3018471,
    "region": "Bretagne",
    "department": "Finistère",
    "population": 144899
  },
  {
    "gid": 3003603,
    "name": "Le Mans",
    "lat": 48.0021,
    "lon": 0.20251,
    "fc": "PPLA2",
    "type": "city",
    "ri": 2988289,
    "di": 2975926,
    "region": "Pays de la Loire",
    "department": "Sarthe",
    "population": 144515
  },
  {
    "gid": 3028791,
    "name": "Cantal",
    "lat": 45.13985,
    "lon": 2.64947,
    "fc": "ADM2",
    "type": "department",
    "ri": 11071625,
    "di": 3028791,
    "region": "Auvergne-Rhône-Alpes",
    "department": "Cantal",
    "population": 144399
  },
  {
    "gid": 12808658,
    "name": "Paris 11e Arrondissement",
    "lat": 48.85834,
    "lon": 2.37952,
    "fc": "PPLX",
    "type": "city",
    "ri": 3012874,
    "di": 2968815,
    "region": "Île-de-France",
    "department": "Paris",
    "population": 144292
  },
  {
    "gid": 3037854,
    "name": "Amiens",
    "lat": 49.9,
    "lon": 2.3,
    "fc": "PPLA2",
    "type": "city",
    "ri": 11071624,
    "di": 2974304,
    "region": "Hauts-de-France",
    "department": "Somme",
    "population": 143086
  },
  {
    "gid": 3013738,
    "name": "Hautes-Alpes",
    "lat": 44.68055,
    "lon": 6.28969,
    "fc": "ADM2",
    "type": "department",
    "ri": 2985244,
    "di": 3013738,
    "region": "Provence-Alpes-Côte d'Azur",
    "department": "Hautes-Alpes",
    "population": 141677
  },
  {
    "gid": 2972191,
    "name": "Tours",
    "lat": 47.39484,
    "lon": 0.70398,
    "fc": "PPLA2",
    "type": "city",
    "ri": 3027939,
    "di": 3012804,
    "region": "Centre-Val de Loire",
    "department": "Indre-et-Loire",
    "population": 141621
  },
  {
    "gid": 2998286,
    "name": "Limoges",
    "lat": 45.83362,
    "lon": 1.24759,
    "fc": "PPLA2",
    "type": "city",
    "ri": 11071620,
    "di": 3013719,
    "region": "Nouvelle-Aquitaine",
    "department": "Haute-Vienne",
    "population": 141176
  },
  {
    "gid": 12808663,
    "name": "Paris 12e Arrondissement",
    "lat": 48.83523,
    "lon": 2.43505,
    "fc": "PPLX",
    "type": "city",
    "ri": 3012874,
    "di": 2968815,
    "region": "Île-de-France",
    "department": "Paris",
    "population": 140311
  },
  {
    "gid": 3033789,
    "name": "Territoire de Belfort",
    "lat": 47.63578,
    "lon": 6.88843,
    "fc": "ADM2",
    "type": "department",
    "ri": 11071619,
    "di": 3033789,
    "region": "Bourgogne-Franche-Comté",
    "department": "Territoire de Belfort",
    "population": 140082
  },
  {
    "gid": 2968254,
    "name": "Villeurbanne",
    "lat": 45.76601,
    "lon": 4.8795,
    "fc": "PPL",
    "type": "city",
    "ri": 11071625,
    "di": 2987410,
    "region": "Auvergne-Rhône-Alpes",
    "department": "Rhône",
    "population": 131445
  },
  {
    "gid": 3033123,
    "name": "Besançon",
    "lat": 47.24878,
    "lon": 6.01815,
    "fc": "PPLA2",
    "type": "city",
    "ri": 11071619,
    "di": 3020989,
    "region": "Bourgogne-Franche-Comté",
    "department": "Doubs",
    "population": 128426
  },
  {
    "gid": 2994160,
    "name": "Metz",
    "lat": 49.11911,
    "lon": 6.17269,
    "fc": "PPLA2",
    "type": "city",
    "ri": 11071622,
    "di": 2991627,
    "region": "Grand Est",
    "department": "Moselle",
    "population": 123914
  },
  {
    "gid": 2989317,
    "name": "Orléans",
    "lat": 47.90248,
    "lon": 1.90407,
    "fc": "PPLA",
    "type": "city",
    "ri": 3027939,
    "di": 2997857,
    "region": "Centre-Val de Loire",
    "department": "Loiret",
    "population": 116344
  },
  {
    "gid": 2982652,
    "name": "Rouen",
    "lat": 49.44313,
    "lon": 1.09932,
    "fc": "PPLA",
    "type": "city",
    "ri": 11071621,
    "di": 2975248,
    "region": "Normandie",
    "department": "Seine-Maritime",
    "population": 116331
  },
  {
    "gid": 3022516,
    "name": "Creuse",
    "lat": 46.07523,
    "lon": 2.05476,
    "fc": "ADM2",
    "type": "department",
    "ri": 11071620,
    "di": 3022516,
    "region": "Nouvelle-Aquitaine",
    "department": "Creuse",
    "population": 115529
  },
  {
    "gid": 2991214,
    "name": "Mulhouse",
    "lat": 47.75205,
    "lon": 7.32866,
    "fc": "PPLA3",
    "type": "city",
    "ri": 11071622,
    "di": 3013663,
    "region": "Grand Est",
    "department": "Haut-Rhin",
    "population": 111430
  },
  {
    "gid": 2992090,
    "name": "Montreuil",
    "lat": 48.86415,
    "lon": 2.44322,
    "fc": "PPL",
    "type": "city",
    "ri": 3012874,
    "di": 2975246,
    "region": "Île-de-France",
    "department": "Seine-Saint-Denis",
    "population": 111240
  },
  {
    "gid": 2987914,
    "name": "Perpignan",
    "lat": 42.69764,
    "lon": 2.89541,
    "fc": "PPLA2",
    "type": "city",
    "ri": 11071623,
    "di": 2984885,
    "region": "Occitanie",
    "department": "Pyrénées-Orientales",
    "population": 110706
  },
  {
    "gid": 3029241,
    "name": "Caen",
    "lat": 49.18585,
    "lon": -0.35912,
    "fc": "PPLA2",
    "type": "city",
    "ri": 11071621,
    "di": 3029094,
    "region": "Normandie",
    "department": "Calvados",
    "population": 110624
  },
  {
    "gid": 3031137,
    "name": "Boulogne-Billancourt",
    "lat": 48.83545,
    "lon": 2.24128,
    "fc": "PPLA3",
    "type": "city",
    "ri": 3012874,
    "di": 3013657,
    "region": "Île-de-France",
    "department": "Hauts-de-Seine",
    "population": 108782
  },
  {
    "gid": 2990999,
    "name": "Nancy",
    "lat": 48.68439,
    "lon": 6.18496,
    "fc": "PPLA2",
    "type": "city",
    "ri": 11071622,
    "di": 2994111,
    "region": "Grand Est",
    "department": "Meurthe et Moselle",
    "population": 105058
  },
  {
    "gid": 6543969,
    "name": "Lyon 03",
    "lat": 45.76124,
    "lon": 4.85184,
    "fc": "PPLX",
    "type": "city",
    "ri": 11071625,
    "di": 2987410,
    "region": "Auvergne-Rhône-Alpes",
    "department": "Rhône",
    "population": 102725
  },
  {
    "gid": 3037044,
    "name": "Argenteuil",
    "lat": 48.94788,
    "lon": 2.24744,
    "fc": "PPLA3",
    "type": "city",
    "ri": 3012874,
    "di": 2971071,
    "region": "Île-de-France",
    "department": "Val d'Oise",
    "population": 101475
  },
  {
    "gid": 2982681,
    "name": "Roubaix",
    "lat": 50.69421,
    "lon": 3.17456,
    "fc": "PPL",
    "type": "city",
    "ri": 11071624,
    "di": 2990129,
    "region": "Hauts-de-France",
    "department": "Département du Nord",
    "population": 99507
  },
  {
    "gid": 2972284,
    "name": "Tourcoing",
    "lat": 50.72391,
    "lon": 3.16117,
    "fc": "PPL",
    "type": "city",
    "ri": 11071624,
    "di": 2990129,
    "region": "Hauts-de-France",
    "department": "Département du Nord",
    "population": 99160
  },
  {
    "gid": 2980916,
    "name": "Saint-Denis",
    "lat": 48.93564,
    "lon": 2.35387,
    "fc": "PPLA3",
    "type": "city",
    "ri": 3012874,
    "di": 2975246,
    "region": "Île-de-France",
    "department": "Seine-Saint-Denis",
    "population": 96128
  },
  {
    "gid": 3035681,
    "name": "Avignon",
    "lat": 43.94834,
    "lon": 4.80892,
    "fc": "PPLA2",
    "type": "city",
    "ri": 2985244,
    "di": 2970554,
    "region": "Provence-Alpes-Côte d'Azur",
    "department": "Département du Vaucluse",
    "population": 89769
  },
  {
    "gid": 7284894,
    "name": "Marseille 13",
    "lat": 43.31856,
    "lon": 5.40836,
    "fc": "PPLA5",
    "type": "city",
    "ri": 2985244,
    "di": 3031359,
    "region": "Provence-Alpes-Côte d'Azur",
    "department": "Bouches-du-Rhône",
    "population": 89316
  },
  {
    "gid": 3036572,
    "name": "Asnières-sur-Seine",
    "lat": 48.91667,
    "lon": 2.28333,
    "fc": "PPL",
    "type": "city",
    "ri": 3012874,
    "di": 3013657,
    "region": "Île-de-France",
    "department": "Hauts-de-Seine",
    "population": 86742
  },
  {
    "gid": 2990970,
    "name": "Nanterre",
    "lat": 48.89198,
    "lon": 2.20675,
    "fc": "PPLA2",
    "type": "city",
    "ri": 3012874,
    "di": 3013657,
    "region": "Île-de-France",
    "department": "Hauts-de-Seine",
    "population": 86719
  },
  {
    "gid": 6543974,
    "name": "Lyon 08",
    "lat": 45.73626,
    "lon": 4.86866,
    "fc": "PPLX",
    "type": "city",
    "ri": 11071625,
    "di": 2987410,
    "region": "Auvergne-Rhône-Alpes",
    "department": "Rhône",
    "population": 86154
  },
  {
    "gid": 2986495,
    "name": "Poitiers",
    "lat": 46.58261,
    "lon": 0.34348,
    "fc": "PPLA2",
    "type": "city",
    "ri": 11071620,
    "di": 2969280,
    "region": "Nouvelle-Aquitaine",
    "department": "Vienne",
    "population": 85960
  },
  {
    "gid": 2969679,
    "name": "Versailles",
    "lat": 48.80359,
    "lon": 2.13424,
    "fc": "PPLA2",
    "type": "city",
    "ri": 3012874,
    "di": 2967196,
    "region": "Île-de-France",
    "department": "Yvelines",
    "population": 85416
  },
  {
    "gid": 3023141,
    "name": "Courbevoie",
    "lat": 48.89672,
    "lon": 2.25666,
    "fc": "PPL",
    "type": "city",
    "ri": 3012874,
    "di": 3013657,
    "region": "Île-de-France",
    "department": "Hauts-de-Seine",
    "population": 85158
  },
  {
    "gid": 3022530,
    "name": "Créteil",
    "lat": 48.79266,
    "lon": 2.46569,
    "fc": "PPLA2",
    "type": "city",
    "ri": 3012874,
    "di": 2971090,
    "region": "Île-de-France",
    "department": "Val-de-Marne",
    "population": 84833
  },
  {
    "gid": 12808653,
    "name": "Paris 10e Arrondissement",
    "lat": 48.87668,
    "lon": 2.35904,
    "fc": "PPLX",
    "type": "city",
    "ri": 3012874,
    "di": 2968815,
    "region": "Île-de-France",
    "department": "Paris",
    "population": 83459
  },
  {
    "gid": 2988358,
    "name": "Pau",
    "lat": 43.31117,
    "lon": -0.35583,
    "fc": "PPLA2",
    "type": "city",
    "ri": 11071620,
    "di": 2984887,
    "region": "Nouvelle-Aquitaine",
    "department": "Pyrénées-Atlantiques",
    "population": 82697
  },
  {
    "gid": 6543973,
    "name": "Lyon 07",
    "lat": 45.74525,
    "lon": 4.84197,
    "fc": "PPLX",
    "type": "city",
    "ri": 11071625,
    "di": 2987410,
    "region": "Auvergne-Rhône-Alpes",
    "department": "Rhône",
    "population": 82573
  },
  {
    "gid": 3024266,
    "name": "Colombes",
    "lat": 48.91882,
    "lon": 2.25404,
    "fc": "PPL",
    "type": "city",
    "ri": 3012874,
    "di": 3013657,
    "region": "Île-de-France",
    "department": "Hauts-de-Seine",
    "population": 82300
  },
  {
    "gid": 2967849,
    "name": "Vitry-sur-Seine",
    "lat": 48.78716,
    "lon": 2.40332,
    "fc": "PPL",
    "type": "city",
    "ri": 3012874,
    "di": 2971090,
    "region": "Île-de-France",
    "department": "Val-de-Marne",
    "population": 81001
  },
  {
    "gid": 3036145,
    "name": "Aulnay-sous-Bois",
    "lat": 48.93814,
    "lon": 2.49402,
    "fc": "PPL",
    "type": "city",
    "ri": 3012874,
    "di": 2975246,
    "region": "Île-de-France",
    "department": "Seine-Saint-Denis",
    "population": 80615
  },
  {
    "gid": 7284889,
    "name": "Marseille 08",
    "lat": 43.27083,
    "lon": 5.3821,
    "fc": "PPLA5",
    "type": "city",
    "ri": 2985244,
    "di": 3031359,
    "region": "Provence-Alpes-Côte d'Azur",
    "department": "Bouches-du-Rhône",
    "population": 78837
  },
  {
    "gid": 7284896,
    "name": "Marseille 15",
    "lat": 43.37224,
    "lon": 5.35386,
    "fc": "PPLA5",
    "type": "city",
    "ri": 2985244,
    "di": 3031359,
    "region": "Provence-Alpes-Côte d'Azur",
    "department": "Bouches-du-Rhône",
    "population": 77770
  },
  {
    "gid": 7284891,
    "name": "Marseille 09",
    "lat": 43.25433,
    "lon": 5.4057,
    "fc": "PPLA5",
    "type": "city",
    "ri": 2985244,
    "di": 3031359,
    "region": "Provence-Alpes-Côte d'Azur",
    "department": "Bouches-du-Rhône",
    "population": 76868
  },
  {
    "gid": 3006787,
    "name": "La Rochelle",
    "lat": 46.16308,
    "lon": -1.15222,
    "fc": "PPLA2",
    "type": "city",
    "ri": 11071620,
    "di": 3026644,
    "region": "Nouvelle-Aquitaine",
    "department": "Charente-Maritime",
    "population": 76810
  },
  {
    "gid": 3027105,
    "name": "Champigny-sur-Marne",
    "lat": 48.81642,
    "lon": 2.49366,
    "fc": "PPL",
    "type": "city",
    "ri": 3012874,
    "di": 2971090,
    "region": "Île-de-France",
    "department": "Val-de-Marne",
    "population": 76726
  },
  {
    "gid": 2982235,
    "name": "Rueil-Malmaison",
    "lat": 48.8765,
    "lon": 2.18967,
    "fc": "PPL",
    "type": "city",
    "ri": 3012874,
    "di": 3013657,
    "region": "Île-de-France",
    "department": "Hauts-de-Seine",
    "population": 76616
  },
  {
    "gid": 2997288,
    "name": "Lozère",
    "lat": 44.5,
    "lon": 3.5,
    "fc": "ADM2",
    "type": "department",
    "ri": 11071623,
    "di": 2997288,
    "region": "Occitanie",
    "department": "Lozère",
    "population": 76503
  },
  {
    "gid": 3037456,
    "name": "Antibes",
    "lat": 43.58127,
    "lon": 7.12487,
    "fc": "PPL",
    "type": "city",
    "ri": 2985244,
    "di": 3038049,
    "region": "Provence-Alpes-Côte d'Azur",
    "department": "Alpes-Maritimes",
    "population": 76393
  },
  {
    "gid": 12808675,
    "name": "Gare",
    "lat": 48.83337,
    "lon": 2.37513,
    "fc": "PPL",
    "type": "city",
    "ri": 3012874,
    "di": 2968815,
    "region": "Île-de-France",
    "department": "Paris",
    "population": 75580
  },
  {
    "gid": 2978179,
    "name": "Saint-Maur-des-Fossés",
    "lat": 48.79395,
    "lon": 2.49323,
    "fc": "PPL",
    "type": "city",
    "ri": 3012874,
    "di": 2971090,
    "region": "Île-de-France",
    "department": "Val-de-Marne",
    "population": 75402
  },
  {
    "gid": 3028808,
    "name": "Cannes",
    "lat": 43.55135,
    "lon": 7.01275,
    "fc": "PPL",
    "type": "city",
    "ri": 2985244,
    "di": 3038049,
    "region": "Provence-Alpes-Côte d'Azur",
    "department": "Alpes-Maritimes",
    "population": 74545
  },
  {
    "gid": 3029162,
    "name": "Calais",
    "lat": 50.95194,
    "lon": 1.85635,
    "fc": "PPLA3",
    "type": "city",
    "ri": 11071624,
    "di": 2988430,
    "region": "Hauts-de-France",
    "department": "Pas-de-Calais",
    "population": 74433
  },
  {
    "gid": 3032833,
    "name": "Béziers",
    "lat": 43.34122,
    "lon": 3.21402,
    "fc": "PPLA3",
    "type": "city",
    "ri": 11071623,
    "di": 3013500,
    "region": "Occitanie",
    "department": "Hérault",
    "population": 74081
  },
  {
    "gid": 3020686,
    "name": "Dunkerque",
    "lat": 51.0344,
    "lon": 2.37681,
    "fc": "PPLA3",
    "type": "city",
    "ri": 11071624,
    "di": 2990129,
    "region": "Hauts-de-France",
    "department": "Département du Nord",
    "population": 71287
  },
  {
    "gid": 3036386,
    "name": "Aubervilliers",
    "lat": 48.91667,
    "lon": 2.38333,
    "fc": "PPL",
    "type": "city",
    "ri": 3012874,
    "di": 2975246,
    "region": "Île-de-France",
    "department": "Seine-Saint-Denis",
    "population": 70914
  },
  {
    "gid": 2994393,
    "name": "Mérignac",
    "lat": 44.84247,
    "lon": -0.64512,
    "fc": "PPL",
    "type": "city",
    "ri": 11071620,
    "di": 3015948,
    "region": "Nouvelle-Aquitaine",
    "department": "Gironde",
    "population": 69791
  },
  {
    "gid": 3031005,
    "name": "Bourges",
    "lat": 47.08333,
    "lon": 2.4,
    "fc": "PPLA2",
    "type": "city",
    "ri": 3027939,
    "di": 3025480,
    "region": "Centre-Val de Loire",
    "department": "Cher",
    "population": 67987
  },
  {
    "gid": 2977921,
    "name": "Saint-Nazaire",
    "lat": 47.27506,
    "lon": -2.2179,
    "fc": "PPLA3",
    "type": "city",
    "ri": 2988289,
    "di": 2997861,
    "region": "Pays de la Loire",
    "department": "Loire-Atlantique",
    "population": 67054
  },
  {
    "gid": 3024297,
    "name": "Colmar",
    "lat": 48.08078,
    "lon": 7.35584,
    "fc": "PPLA2",
    "type": "city",
    "ri": 11071622,
    "di": 3013663,
    "region": "Grand Est",
    "department": "Haut-Rhin",
    "population": 65405
  },
  {
    "gid": 12808676,
    "name": "Maison Blanche",
    "lat": 48.82586,
    "lon": 2.3508,
    "fc": "PPL",
    "type": "city",
    "ri": 3012874,
    "di": 2968815,
    "region": "Île-de-France",
    "department": "Paris",
    "population": 64302
  },
  {
    "gid": 2971053,
    "name": "Valence",
    "lat": 44.9256,
    "lon": 4.90956,
    "fc": "PPLA2",
    "type": "city",
    "ri": 11071625,
    "di": 3020781,
    "region": "Auvergne-Rhône-Alpes",
    "department": "Drôme",
    "population": 63864
  },
  {
    "gid": 2984701,
    "name": "Quimper",
    "lat": 47.99597,
    "lon": -4.09795,
    "fc": "PPLA2",
    "type": "city",
    "ri": 3030293,
    "di": 3018471,
    "region": "Bretagne",
    "department": "Finistère",
    "population": 63849
  },
  {
    "gid": 3020839,
    "name": "Drancy",
    "lat": 48.92578,
    "lon": 2.44533,
    "fc": "PPL",
    "type": "city",
    "ri": 3012874,
    "di": 2975246,
    "region": "Île-de-France",
    "department": "Seine-Saint-Denis",
    "population": 62488
  },
  {
    "gid": 2990189,
    "name": "Noisy-le-Grand",
    "lat": 48.84979,
    "lon": 2.56266,
    "fc": "PPL",
    "type": "city",
    "ri": 3012874,
    "di": 2975246,
    "region": "Île-de-France",
    "department": "Seine-Saint-Denis",
    "population": 62420
  },
  {
    "gid": 6543862,
    "name": "Villeneuve-d'Ascq",
    "lat": 50.61669,
    "lon": 3.16664,
    "fc": "PPL",
    "type": "city",
    "ri": 11071624,
    "di": 2990129,
    "region": "Hauts-de-France",
    "department": "Département du Nord",
    "population": 62400
  },
  {
    "gid": 3006414,
    "name": "La Seyne-sur-Mer",
    "lat": 43.10322,
    "lon": 5.87816,
    "fc": "PPL",
    "type": "city",
    "ri": 2985244,
    "di": 2970749,
    "region": "Provence-Alpes-Côte d'Azur",
    "department": "Var",
    "population": 62330
  },
  {
    "gid": 2998975,
    "name": "Levallois-Perret",
    "lat": 48.89389,
    "lon": 2.28864,
    "fc": "PPL",
    "type": "city",
    "ri": 3012874,
    "di": 3013657,
    "region": "Île-de-France",
    "department": "Hauts-de-Seine",
    "population": 62178
  },
  {
    "gid": 7284895,
    "name": "Marseille 14",
    "lat": 43.34447,
    "lon": 5.38004,
    "fc": "PPLA5",
    "type": "city",
    "ri": 2985244,
    "di": 3031359,
    "region": "Provence-Alpes-Côte d'Azur",
    "department": "Bouches-du-Rhône",
    "population": 61920
  },
  {
    "gid": 12547038,
    "name": "Picpus",
    "lat": 48.84258,
    "lon": 2.40014,
    "fc": "PPLX",
    "type": "city",
    "ri": 3012874,
    "di": 2968815,
    "region": "Île-de-France",
    "department": "Paris",
    "population": 61920
  },
  {
    "gid": 3027422,
    "name": "Chambéry",
    "lat": 45.56628,
    "lon": 5.92079,
    "fc": "PPLA2",
    "type": "city",
    "ri": 11071625,
    "di": 2975517,
    "region": "Auvergne-Rhône-Alpes",
    "department": "Savoie",
    "population": 61640
  },
  {
    "gid": 3012649,
    "name": "Issy-les-Moulineaux",
    "lat": 48.82104,
    "lon": 2.27718,
    "fc": "PPL",
    "type": "city",
    "ri": 3012874,
    "di": 3013657,
    "region": "Île-de-France",
    "department": "Hauts-de-Seine",
    "population": 61447
  },
  {
    "gid": 2990611,
    "name": "Neuilly-sur-Seine",
    "lat": 48.8846,
    "lon": 2.26965,
    "fc": "PPL",
    "type": "city",
    "ri": 3012874,
    "di": 3013657,
    "region": "Île-de-France",
    "department": "Hauts-de-Seine",
    "population": 61300
  },
  {
    "gid": 2971549,
    "name": "Troyes",
    "lat": 48.30073,
    "lon": 4.08524,
    "fc": "PPLA2",
    "type": "city",
    "ri": 11071622,
    "di": 3036420,
    "region": "Grand Est",
    "department": "Aube",
    "population": 60785
  },
  {
    "gid": 3037423,
    "name": "Antony",
    "lat": 48.75329,
    "lon": 2.29668,
    "fc": "PPLA3",
    "type": "city",
    "ri": 3012874,
    "di": 3013657,
    "region": "Île-de-France",
    "department": "Hauts-de-Seine",
    "population": 59845
  },
  {
    "gid": 3006767,
    "name": "La Roche-sur-Yon",
    "lat": 46.66974,
    "lon": -1.42757,
    "fc": "PPLA2",
    "type": "city",
    "ri": 2988289,
    "di": 2970140,
    "region": "Pays de la Loire",
    "department": "Vendée",
    "population": 59410
  },
  {
    "gid": 7284893,
    "name": "Marseille 12",
    "lat": 43.29614,
    "lon": 5.43617,
    "fc": "PPLA5",
    "type": "city",
    "ri": 2985244,
    "di": 3031359,
    "region": "Provence-Alpes-Côte d'Azur",
    "department": "Bouches-du-Rhône",
    "population": 58734
  },
  {
    "gid": 2997577,
    "name": "Lorient",
    "lat": 47.74817,
    "lon": -3.37177,
    "fc": "PPLA3",
    "type": "city",
    "ri": 3030293,
    "di": 2991879,
    "region": "Bretagne",
    "department": "Morbihan",
    "population": 58112
  },
  {
    "gid": 2976043,
    "name": "Sarcelles",
    "lat": 48.99739,
    "lon": 2.37821,
    "fc": "PPLA3",
    "type": "city",
    "ri": 3012874,
    "di": 2971071,
    "region": "Île-de-France",
    "department": "Val d'Oise",
    "population": 57979
  },
  {
    "gid": 2987805,
    "name": "Pessac",
    "lat": 44.80565,
    "lon": -0.6324,
    "fc": "PPL",
    "type": "city",
    "ri": 11071620,
    "di": 3015948,
    "region": "Nouvelle-Aquitaine",
    "department": "Gironde",
    "population": 57944
  },
  {
    "gid": 3012621,
    "name": "Ivry-sur-Seine",
    "lat": 48.81568,
    "lon": 2.38487,
    "fc": "PPL",
    "type": "city",
    "ri": 3012874,
    "di": 2971090,
    "region": "Île-de-France",
    "department": "Val-de-Marne",
    "population": 57897
  },
  {
    "gid": 3019265,
    "name": "Évreux",
    "lat": 49.02414,
    "lon": 1.15082,
    "fc": "PPLA2",
    "type": "city",
    "ri": 11071621,
    "di": 3019317,
    "region": "Normandie",
    "department": "Eure",
    "population": 57795
  },
  {
    "gid": 2970072,
    "name": "Vénissieux",
    "lat": 45.69706,
    "lon": 4.88593,
    "fc": "PPL",
    "type": "city",
    "ri": 11071625,
    "di": 2987410,
    "region": "Auvergne-Rhône-Alpes",
    "department": "Rhône",
    "population": 57584
  },
  {
    "gid": 3027883,
    "name": "Cergy",
    "lat": 49.03645,
    "lon": 2.07613,
    "fc": "PPL",
    "type": "city",
    "ri": 3012874,
    "di": 2971071,
    "region": "Île-de-France",
    "department": "Val d'Oise",
    "population": 57576
  },
  {
    "gid": 3024597,
    "name": "Clichy",
    "lat": 48.90018,
    "lon": 2.30952,
    "fc": "PPL",
    "type": "city",
    "ri": 3012874,
    "di": 3013657,
    "region": "Île-de-France",
    "department": "Hauts-de-Seine",
    "population": 57467
  },
  {
    "gid": 7284892,
    "name": "Marseille 11",
    "lat": 43.2907,
    "lon": 5.4384,
    "fc": "PPLA5",
    "type": "city",
    "ri": 2985244,
    "di": 3031359,
    "region": "Provence-Alpes-Côte d'Azur",
    "department": "Bouches-du-Rhône",
    "population": 56792
  },
  {
    "gid": 2977295,
    "name": "Saint-Quentin",
    "lat": 49.84889,
    "lon": 3.28757,
    "fc": "PPLA3",
    "type": "city",
    "ri": 11071624,
    "di": 3038375,
    "region": "Hauts-de-France",
    "department": "Aisne",
    "population": 55407
  },
  {
    "gid": 2990355,
    "name": "Niort",
    "lat": 46.32313,
    "lon": -0.45877,
    "fc": "PPLA2",
    "type": "city",
    "ri": 11071620,
    "di": 3021501,
    "region": "Nouvelle-Aquitaine",
    "department": "Deux-Sèvres",
    "population": 54660
  },
  {
    "gid": 3033791,
    "name": "Belfort",
    "lat": 47.64218,
    "lon": 6.85385,
    "fc": "PPLA2",
    "type": "city",
    "ri": 11071619,
    "di": 3033789,
    "region": "Bourgogne-Franche-Comté",
    "department": "Territoire de Belfort",
    "population": 54562
  },
  {
    "gid": 3038334,
    "name": "Ajaccio",
    "lat": 41.91886,
    "lon": 8.73812,
    "fc": "PPLA",
    "type": "city",
    "ri": 3023519,
    "di": 3023514,
    "region": "Corse",
    "department": "South Corsica",
    "population": 54364
  },
  {
    "gid": 2970777,
    "name": "Vannes",
    "lat": 47.65688,
    "lon": -2.76205,
    "fc": "PPLA2",
    "type": "city",
    "ri": 3030293,
    "di": 2991879,
    "region": "Bretagne",
    "department": "Morbihan",
    "population": 54020
  },
  {
    "gid": 2975921,
    "name": "Sartrouville",
    "lat": 48.9482,
    "lon": 2.19169,
    "fc": "PPL",
    "type": "city",
    "ri": 3012874,
    "di": 2967196,
    "region": "Île-de-France",
    "department": "Yvelines",
    "population": 53980
  },
  {
    "gid": 2996568,
    "name": "Maisons-Alfort",
    "lat": 48.81171,
    "lon": 2.43945,
    "fc": "PPL",
    "type": "city",
    "ri": 3012874,
    "di": 2971090,
    "region": "Île-de-France",
    "department": "Val-de-Marne",
    "population": 53964
  },
  {
    "gid": 2994798,
    "name": "Meaux",
    "lat": 48.96014,
    "lon": 2.87885,
    "fc": "PPLA3",
    "type": "city",
    "ri": 3012874,
    "di": 2975249,
    "region": "Île-de-France",
    "department": "Seine-et-Marne",
    "population": 53811
  },
  {
    "gid": 3032213,
    "name": "Blois",
    "lat": 47.59432,
    "lon": 1.32912,
    "fc": "PPLA2",
    "type": "city",
    "ri": 3027939,
    "di": 2997856,
    "region": "Centre-Val de Loire",
    "department": "Loire-et-Cher",
    "population": 53660
  },
  {
    "gid": 3029974,
    "name": "Brive-la-Gaillarde",
    "lat": 45.1589,
    "lon": 1.53326,
    "fc": "PPLA3",
    "type": "city",
    "ri": 11071620,
    "di": 3023532,
    "region": "Nouvelle-Aquitaine",
    "department": "Corrèze",
    "population": 53466
  },
  {
    "gid": 3036938,
    "name": "Arles",
    "lat": 43.67681,
    "lon": 4.63031,
    "fc": "PPLA3",
    "type": "city",
    "ri": 2985244,
    "di": 3031359,
    "region": "Provence-Alpes-Côte d'Azur",
    "department": "Bouches-du-Rhône",
    "population": 53431
  },
  {
    "gid": 3034006,
    "name": "Beauvais",
    "lat": 49.43333,
    "lon": 2.08333,
    "fc": "PPLA2",
    "type": "city",
    "ri": 11071624,
    "di": 2989663,
    "region": "Hauts-de-France",
    "department": "Oise",
    "population": 53393
  },
  {
    "gid": 3026204,
    "name": "Châteauroux",
    "lat": 46.81248,
    "lon": 1.69362,
    "fc": "PPLA2",
    "type": "city",
    "ri": 3027939,
    "di": 3012805,
    "region": "Centre-Val de Loire",
    "department": "Indre",
    "population": 53301
  },
  {
    "gid": 3025053,
    "name": "Cholet",
    "lat": 47.05893,
    "lon": -0.87974,
    "fc": "PPLA3",
    "type": "city",
    "ri": 2988289,
    "di": 2996663,
    "region": "Pays de la Loire",
    "department": "Maine-et-Loire",
    "population": 53160
  },
  {
    "gid": 3017253,
    "name": "Fréjus",
    "lat": 43.43325,
    "lon": 6.73555,
    "fc": "PPL",
    "type": "city",
    "ri": 2985244,
    "di": 2970749,
    "region": "Provence-Alpes-Côte d'Azur",
    "department": "Var",
    "population": 53098
  },
  {
    "gid": 2988621,
    "name": "Pantin",
    "lat": 48.89437,
    "lon": 2.40935,
    "fc": "PPL",
    "type": "city",
    "ri": 3012874,
    "di": 2975246,
    "region": "Île-de-France",
    "department": "Seine-Saint-Denis",
    "population": 52922
  },
  {
    "gid": 6543972,
    "name": "Lyon 06",
    "lat": 45.76788,
    "lon": 4.85064,
    "fc": "PPLX",
    "type": "city",
    "ri": 11071625,
    "di": 2987410,
    "region": "Auvergne-Rhône-Alpes",
    "department": "Rhône",
    "population": 52862
  },
  {
    "gid": 2981280,
    "name": "Saint-Brieuc",
    "lat": 48.51513,
    "lon": -2.76838,
    "fc": "PPLA2",
    "type": "city",
    "ri": 3030293,
    "di": 3023414,
    "region": "Bretagne",
    "department": "Côtes-d'Armor",
    "population": 52774
  },
  {
    "gid": 2993002,
    "name": "Montauban",
    "lat": 44.01759,
    "lon": 1.3542,
    "fc": "PPLA2",
    "type": "city",
    "ri": 11071623,
    "di": 2973357,
    "region": "Occitanie",
    "department": "Tarn-et-Garonne",
    "population": 52434
  },
  {
    "gid": 3026613,
    "name": "Charleville-Mézières",
    "lat": 49.7685,
    "lon": 4.72487,
    "fc": "PPLA2",
    "type": "city",
    "ri": 11071622,
    "di": 3037136,
    "region": "Grand Est",
    "department": "Ardennes",
    "population": 52415
  },
  {
    "gid": 3038261,
    "name": "Albi",
    "lat": 43.9298,
    "lon": 2.148,
    "fc": "PPLA2",
    "type": "city",
    "ri": 11071623,
    "di": 2973362,
    "region": "Occitanie",
    "department": "Tarn",
    "population": 52409
  },
  {
    "gid": 2973385,
    "name": "Tarbes",
    "lat": 43.23407,
    "lon": 0.07139,
    "fc": "PPLA2",
    "type": "city",
    "ri": 11071623,
    "di": 3013726,
    "region": "Occitanie",
    "department": "Hautes-Pyrénées",
    "population": 52106
  },
  {
    "gid": 3017910,
    "name": "Fontenay-sous-Bois",
    "lat": 48.85442,
    "lon": 2.48268,
    "fc": "PPL",
    "type": "city",
    "ri": 3012874,
    "di": 2971090,
    "region": "Île-de-France",
    "department": "Val-de-Marne",
    "population": 52075
  },
  {
    "gid": 6543975,
    "name": "Lyon 09",
    "lat": 45.77255,
    "lon": 4.80326,
    "fc": "PPLX",
    "type": "city",
    "ri": 11071625,
    "di": 2987410,
    "region": "Auvergne-Rhône-Alpes",
    "department": "Rhône",
    "population": 51983
  },
  {
    "gid": 3019256,
    "name": "Évry",
    "lat": 48.6328,
    "lon": 2.44049,
    "fc": "PPLA2",
    "type": "city",
    "ri": 3012874,
    "di": 3019599,
    "region": "Île-de-France",
    "department": "Essonne",
    "population": 51900
  },
  {
    "gid": 3024783,
    "name": "Clamart",
    "lat": 48.80299,
    "lon": 2.26692,
    "fc": "PPL",
    "type": "city",
    "ri": 3012874,
    "di": 3013657,
    "region": "Île-de-France",
    "department": "Hauts-de-Seine",
    "population": 51400
  },
  {
    "gid": 7284890,
    "name": "Marseille 10",
    "lat": 43.27889,
    "lon": 5.41523,
    "fc": "PPLA5",
    "type": "city",
    "ri": 2985244,
    "di": 3031359,
    "region": "Provence-Alpes-Côte d'Azur",
    "department": "Bouches-du-Rhône",
    "population": 51299
  },
  {
    "gid": 3027487,
    "name": "Châlons-en-Champagne",
    "lat": 48.95393,
    "lon": 4.36724,
    "fc": "PPLA2",
    "type": "city",
    "ri": 11071622,
    "di": 2995603,
    "region": "Grand Est",
    "department": "Marne",
    "population": 51257
  },
  {
    "gid": 2990919,
    "name": "Narbonne",
    "lat": 43.18396,
    "lon": 3.00141,
    "fc": "PPLA3",
    "type": "city",
    "ri": 11071623,
    "di": 3036264,
    "region": "Occitanie",
    "department": "Aude",
    "population": 50776
  },
  {
    "gid": 2978640,
    "name": "Saint-Malo",
    "lat": 48.64738,
    "lon": -2.00877,
    "fc": "PPLA3",
    "type": "city",
    "ri": 3030293,
    "di": 3012849,
    "region": "Bretagne",
    "department": "Ille-et-Vilaine",
    "population": 50676
  },
  {
    "gid": 3005866,
    "name": "Laval",
    "lat": 48.07247,
    "lon": -0.77019,
    "fc": "PPLA2",
    "type": "city",
    "ri": 2988289,
    "di": 2994932,
    "region": "Pays de la Loire",
    "department": "Mayenne",
    "population": 50489
  },
  {
    "gid": 3012937,
    "name": "Hyères",
    "lat": 43.12038,
    "lon": 6.12857,
    "fc": "PPL",
    "type": "city",
    "ri": 2985244,
    "di": 2970749,
    "region": "Provence-Alpes-Côte d'Azur",
    "department": "Var",
    "population": 50487
  },
  {
    "gid": 6543971,
    "name": "Lyon 05",
    "lat": 45.76106,
    "lon": 4.82677,
    "fc": "PPLX",
    "type": "city",
    "ri": 11071625,
    "di": 2987410,
    "region": "Auvergne-Rhône-Alpes",
    "department": "Rhône",
    "population": 49664
  },
  {
    "gid": 3028641,
    "name": "Carcassonne",
    "lat": 43.21649,
    "lon": 2.34863,
    "fc": "PPLA2",
    "type": "city",
    "ri": 11071623,
    "di": 3036264,
    "region": "Occitanie",
    "department": "Aude",
    "population": 49600
  },
  {
    "gid": 3037598,
    "name": "Angoulême",
    "lat": 45.64997,
    "lon": 0.15345,
    "fc": "PPLA2",
    "type": "city",
    "ri": 11071620,
    "di": 3026646,
    "region": "Nouvelle-Aquitaine",
    "department": "Charente",
    "population": 49468
  },
  {
    "gid": 3037543,
    "name": "Annecy",
    "lat": 45.90878,
    "lon": 6.12565,
    "fc": "PPLA2",
    "type": "city",
    "ri": 11071625,
    "di": 3013736,
    "region": "Auvergne-Rhône-Alpes",
    "department": "Haute-Savoie",
    "population": 49232
  },
  {
    "gid": 3031815,
    "name": "Bondy",
    "lat": 48.9018,
    "lon": 2.48931,
    "fc": "PPL",
    "type": "city",
    "ri": 3012874,
    "di": 2975246,
    "region": "Île-de-France",
    "department": "Seine-Saint-Denis",
    "population": 48268
  },
  {
    "gid": 3005269,
    "name": "Le Blanc-Mesnil",
    "lat": 48.93872,
    "lon": 2.46138,
    "fc": "PPL",
    "type": "city",
    "ri": 3012874,
    "di": 2975246,
    "region": "Île-de-France",
    "department": "Seine-Saint-Denis",
    "population": 48077
  },
  {
    "gid": 2968705,
    "name": "Villejuif",
    "lat": 48.7939,
    "lon": 2.35992,
    "fc": "PPL",
    "type": "city",
    "ri": 3012874,
    "di": 2971090,
    "region": "Île-de-France",
    "department": "Val-de-Marne",
    "population": 48048
  },
  {
    "gid": 3014856,
    "name": "Grasse",
    "lat": 43.65783,
    "lon": 6.92537,
    "fc": "PPLA3",
    "type": "city",
    "ri": 2985244,
    "di": 3038049,
    "region": "Provence-Alpes-Côte d'Azur",
    "department": "Alpes-Maritimes",
    "population": 47581
  },
  {
    "gid": 2974681,
    "name": "Sevran",
    "lat": 48.94472,
    "lon": 2.52746,
    "fc": "PPL",
    "type": "city",
    "ri": 3012874,
    "di": 2975246,
    "region": "Île-de-France",
    "department": "Seine-Saint-Denis",
    "population": 47334
  },
  {
    "gid": 3028263,
    "name": "Castres",
    "lat": 43.60527,
    "lon": 2.24088,
    "fc": "PPLA3",
    "type": "city",
    "ri": 11071623,
    "di": 2973362,
    "region": "Occitanie",
    "department": "Tarn",
    "population": 47275
  },
  {
    "gid": 3027484,
    "name": "Chalon-sur-Saône",
    "lat": 46.78112,
    "lon": 4.85372,
    "fc": "PPLA3",
    "type": "city",
    "ri": 11071619,
    "di": 2976082,
    "region": "Bourgogne-Franche-Comté",
    "department": "Saône-et-Loire",
    "population": 47251
  },
  {
    "gid": 7284885,
    "name": "Marseille 04",
    "lat": 43.30213,
    "lon": 5.40141,
    "fc": "PPLA5",
    "type": "city",
    "ri": 2985244,
    "di": 3031359,
    "region": "Provence-Alpes-Côte d'Azur",
    "department": "Bouches-du-Rhône",
    "population": 47193
  },
  {
    "gid": 3036784,
    "name": "Arras",
    "lat": 50.29301,
    "lon": 2.78186,
    "fc": "PPLA2",
    "type": "city",
    "ri": 11071624,
    "di": 2988430,
    "region": "Hauts-de-France",
    "department": "Pas-de-Calais",
    "population": 47052
  },
  {
    "gid": 3031133,
    "name": "Boulogne-sur-Mer",
    "lat": 50.72485,
    "lon": 1.61373,
    "fc": "PPLA3",
    "type": "city",
    "ri": 11071624,
    "di": 2988430,
    "region": "Hauts-de-France",
    "department": "Pas-de-Calais",
    "population": 47013
  },
  {
    "gid": 3025622,
    "name": "Chelles",
    "lat": 48.88109,
    "lon": 2.59295,
    "fc": "PPL",
    "type": "city",
    "ri": 3012874,
    "di": 2975249,
    "region": "Île-de-France",
    "department": "Seine-et-Marne",
    "population": 46947
  },
  {
    "gid": 3029227,
    "name": "Cagnes-sur-Mer",
    "lat": 43.66352,
    "lon": 7.1479,
    "fc": "PPL",
    "type": "city",
    "ri": 2985244,
    "di": 3038049,
    "region": "Provence-Alpes-Côte d'Azur",
    "department": "Alpes-Maritimes",
    "population": 46923
  },
  {
    "gid": 2979590,
    "name": "Saint-Herblain",
    "lat": 47.21154,
    "lon": -1.651,
    "fc": "PPL",
    "type": "city",
    "ri": 2988289,
    "di": 2997861,
    "region": "Pays de la Loire",
    "department": "Loire-Atlantique",
    "population": 46898
  },
  {
    "gid": 3021000,
    "name": "Douai",
    "lat": 50.37069,
    "lon": 3.07922,
    "fc": "PPLA3",
    "type": "city",
    "ri": 11071624,
    "di": 2990129,
    "region": "Hauts-de-France",
    "department": "Département du Nord",
    "population": 46531
  },
  {
    "gid": 3020020,
    "name": "Épinay-sur-Seine",
    "lat": 48.9535,
    "lon": 2.31514,
    "fc": "PPL",
    "type": "city",
    "ri": 3012874,
    "di": 2975246,
    "region": "Île-de-France",
    "department": "Seine-Saint-Denis",
    "population": 46145
  },
  {
    "gid": 2968054,
    "name": "Vincennes",
    "lat": 48.8486,
    "lon": 2.43769,
    "fc": "PPL",
    "type": "city",
    "ri": 3012874,
    "di": 2971090,
    "region": "Île-de-France",
    "department": "Val-de-Marne",
    "population": 45923
  },
  {
    "gid": 12808660,
    "name": "Roquette",
    "lat": 48.858,
    "lon": 2.38147,
    "fc": "PPLX",
    "type": "city",
    "ri": 3012874,
    "di": 2968815,
    "region": "Île-de-France",
    "department": "Paris",
    "population": 45842
  },
  {
    "gid": 2995387,
    "name": "Martigues",
    "lat": 43.40735,
    "lon": 5.05526,
    "fc": "PPL",
    "type": "city",
    "ri": 2985244,
    "di": 3031359,
    "region": "Provence-Alpes-Côte d'Azur",
    "department": "Bouches-du-Rhône",
    "population": 45749
  },
  {
    "gid": 7284884,
    "name": "Marseille 03",
    "lat": 43.30257,
    "lon": 5.37583,
    "fc": "PPLA5",
    "type": "city",
    "ri": 2985244,
    "di": 3031359,
    "region": "Provence-Alpes-Côte d'Azur",
    "department": "Bouches-du-Rhône",
    "population": 45414
  },
  {
    "gid": 3031009,
    "name": "Bourg-en-Bresse",
    "lat": 46.20574,
    "lon": 5.2258,
    "fc": "PPLA2",
    "type": "city",
    "ri": 11071625,
    "di": 3038422,
    "region": "Auvergne-Rhône-Alpes",
    "department": "Ain",
    "population": 45340
  },
  {
    "gid": 3032179,
    "name": "Bobigny",
    "lat": 48.90982,
    "lon": 2.45012,
    "fc": "PPLA2",
    "type": "city",
    "ri": 3012874,
    "di": 2975246,
    "region": "Île-de-France",
    "department": "Seine-Saint-Denis",
    "population": 44962
  },
  {
    "gid": 2992292,
    "name": "Montluçon",
    "lat": 46.34015,
    "lon": 2.60254,
    "fc": "PPLA3",
    "type": "city",
    "ri": 11071625,
    "di": 3038111,
    "region": "Auvergne-Rhône-Alpes",
    "department": "Allier",
    "population": 44960
  },
  {
    "gid": 3036433,
    "name": "Aubagne",
    "lat": 43.29276,
    "lon": 5.57067,
    "fc": "PPL",
    "type": "city",
    "ri": 2985244,
    "di": 3031359,
    "region": "Provence-Alpes-Côte d'Azur",
    "department": "Bouches-du-Rhône",
    "population": 44844
  },
  {
    "gid": 2971041,
    "name": "Valenciennes",
    "lat": 50.35909,
    "lon": 3.52506,
    "fc": "PPLA3",
    "type": "city",
    "ri": 11071624,
    "di": 2990129,
    "region": "Hauts-de-France",
    "department": "Département du Nord",
    "population": 44821
  },
  {
    "gid": 2973675,
    "name": "Suresnes",
    "lat": 48.87143,
    "lon": 2.22929,
    "fc": "PPL",
    "type": "city",
    "ri": 3012874,
    "di": 3013657,
    "region": "Île-de-France",
    "department": "Hauts-de-Seine",
    "population": 44697
  },
  {
    "gid": 2994144,
    "name": "Meudon",
    "lat": 48.81381,
    "lon": 2.235,
    "fc": "PPL",
    "type": "city",
    "ri": 3012874,
    "di": 3013657,
    "region": "Île-de-France",
    "department": "Hauts-de-Seine",
    "population": 44652
  },
  {
    "gid": 7284886,
    "name": "Marseille 05",
    "lat": 43.29551,
    "lon": 5.40055,
    "fc": "PPLA5",
    "type": "city",
    "ri": 2985244,
    "di": 3031359,
    "region": "Provence-Alpes-Côte d'Azur",
    "department": "Bouches-du-Rhône",
    "population": 44583
  },
  {
    "gid": 3034475,
    "name": "Bayonne",
    "lat": 43.49316,
    "lon": -1.473,
    "fc": "PPLA3",
    "type": "city",
    "ri": 11071620,
    "di": 2984887,
    "region": "Nouvelle-Aquitaine",
    "department": "Pyrénées-Atlantiques",
    "population": 44396
  },
  {
    "gid": 3012647,
    "name": "Istres",
    "lat": 43.51345,
    "lon": 4.98747,
    "fc": "PPLA3",
    "type": "city",
    "ri": 2985244,
    "di": 3031359,
    "region": "Provence-Alpes-Côte d'Azur",
    "department": "Bouches-du-Rhône",
    "population": 44373
  },
  {
    "gid": 2972811,
    "name": "Thionville",
    "lat": 49.35994,
    "lon": 6.16044,
    "fc": "PPLA3",
    "type": "city",
    "ri": 11071622,
    "di": 2991627,
    "region": "Grand Est",
    "department": "Moselle",
    "population": 44311
  },
  {
    "gid": 2996148,
    "name": "Mantes-la-Jolie",
    "lat": 48.99048,
    "lon": 1.7167,
    "fc": "PPLA3",
    "type": "city",
    "ri": 3012874,
    "di": 2967196,
    "region": "Île-de-France",
    "department": "Yvelines",
    "population": 44263
  },
  {
    "gid": 3024066,
    "name": "Compiègne",
    "lat": 49.41794,
    "lon": 2.82606,
    "fc": "PPLA3",
    "type": "city",
    "ri": 11071624,
    "di": 2989663,
    "region": "Hauts-de-France",
    "department": "Oise",
    "population": 44243
  },
  {
    "gid": 2990474,
    "name": "Nevers",
    "lat": 46.98956,
    "lon": 3.159,
    "fc": "PPLA2",
    "type": "city",
    "ri": 11071619,
    "di": 2990371,
    "region": "Bourgogne-Franche-Comté",
    "department": "Nièvre",
    "population": 43988
  },
  {
    "gid": 3026467,
    "name": "Chartres",
    "lat": 48.44685,
    "lon": 1.48925,
    "fc": "PPLA2",
    "type": "city",
    "ri": 3027939,
    "di": 3019316,
    "region": "Centre-Val de Loire",
    "department": "Eure-et-Loir",
    "population": 43838
  },
  {
    "gid": 7284887,
    "name": "Marseille 06",
    "lat": 43.28764,
    "lon": 5.37918,
    "fc": "PPLA5",
    "type": "city",
    "ri": 2985244,
    "di": 3031359,
    "region": "Provence-Alpes-Côte d'Azur",
    "department": "Bouches-du-Rhône",
    "population": 43360
  },
  {
    "gid": 3004871,
    "name": "Le Cannet",
    "lat": 43.57662,
    "lon": 7.01912,
    "fc": "PPL",
    "type": "city",
    "ri": 2985244,
    "di": 3038049,
    "region": "Provence-Alpes-Côte d'Azur",
    "department": "Alpes-Maritimes",
    "population": 43353
  },
  {
    "gid": 2967421,
    "name": "Wattrelos",
    "lat": 50.70118,
    "lon": 3.21812,
    "fc": "PPL",
    "type": "city",
    "ri": 11071624,
    "di": 2990129,
    "region": "Hauts-de-France",
    "department": "Département du Nord",
    "population": 42826
  },
  {
    "gid": 3029096,
    "name": "Caluire-et-Cuire",
    "lat": 45.79462,
    "lon": 4.8464,
    "fc": "PPL",
    "type": "city",
    "ri": 11071625,
    "di": 2987410,
    "region": "Auvergne-Rhône-Alpes",
    "department": "Rhône",
    "population": 42763
  },
  {
    "gid": 3016702,
    "name": "Gap",
    "lat": 44.55858,
    "lon": 6.07868,
    "fc": "PPLA2",
    "type": "city",
    "ri": 2985244,
    "di": 3013738,
    "region": "Provence-Alpes-Côte d'Azur",
    "department": "Hautes-Alpes",
    "population": 42715
  },
  {
    "gid": 2973495,
    "name": "Talence",
    "lat": 44.80849,
    "lon": -0.58915,
    "fc": "PPL",
    "type": "city",
    "ri": 11071620,
    "di": 3015948,
    "region": "Nouvelle-Aquitaine",
    "department": "Gironde",
    "population": 42579
  },
  {
    "gid": 3038224,
    "name": "Alès",
    "lat": 44.12489,
    "lon": 4.08082,
    "fc": "PPLA3",
    "type": "city",
    "ri": 11071623,
    "di": 3016670,
    "region": "Occitanie",
    "department": "Gard",
    "population": 42410
  },
  {
    "gid": 3016321,
    "name": "Gennevilliers",
    "lat": 48.93333,
    "lon": 2.3,
    "fc": "PPL",
    "type": "city",
    "ri": 3012874,
    "di": 3013657,
    "region": "Île-de-France",
    "department": "Hauts-de-Seine",
    "population": 42294
  },
  {
    "gid": 2977356,
    "name": "Saint-Priest",
    "lat": 45.69651,
    "lon": 4.94385,
    "fc": "PPL",
    "type": "city",
    "ri": 11071625,
    "di": 2987410,
    "region": "Auvergne-Rhône-Alpes",
    "department": "Rhône",
    "population": 41641
  },
  {
    "gid": 2982757,
    "name": "Rosny-sous-Bois",
    "lat": 48.87017,
    "lon": 2.4991,
    "fc": "PPL",
    "type": "city",
    "ri": 3012874,
    "di": 2975246,
    "region": "Île-de-France",
    "department": "Seine-Saint-Denis",
    "population": 41627
  },
  {
    "gid": 3035843,
    "name": "Auxerre",
    "lat": 47.7996,
    "lon": 3.57033,
    "fc": "PPLA2",
    "type": "city",
    "ri": 11071619,
    "di": 2967222,
    "region": "Bourgogne-Franche-Comté",
    "department": "Yonne",
    "population": 41516
  },
  {
    "gid": 2976341,
    "name": "Salon-de-Provence",
    "lat": 43.64229,
    "lon": 5.09478,
    "fc": "PPL",
    "type": "city",
    "ri": 2985244,
    "di": 3031359,
    "region": "Provence-Alpes-Côte d'Azur",
    "department": "Bouches-du-Rhône",
    "population": 41397
  },
  {
    "gid": 2979783,
    "name": "Saint-Germain-en-Laye",
    "lat": 48.89643,
    "lon": 2.0904,
    "fc": "PPLA3",
    "type": "city",
    "ri": 3012874,
    "di": 2967196,
    "region": "Île-de-France",
    "department": "Yvelines",
    "population": 41142
  },
  {
    "gid": 3034640,
    "name": "Bastia",
    "lat": 42.70219,
    "lon": 9.45123,
    "fc": "PPLA2",
    "type": "city",
    "ri": 3023519,
    "di": 3013793,
    "region": "Corse",
    "department": "Upper Corsica",
    "population": 41001
  },
  {
    "gid": 7284882,
    "name": "Marseille 01",
    "lat": 43.29814,
    "lon": 5.38407,
    "fc": "PPLA5",
    "type": "city",
    "ri": 2985244,
    "di": 3031359,
    "region": "Provence-Alpes-Côte d'Azur",
    "department": "Bouches-du-Rhône",
    "population": 40919
  },
  {
    "gid": 2974733,
    "name": "Sète",
    "lat": 43.4028,
    "lon": 3.69278,
    "fc": "PPL",
    "type": "city",
    "ri": 11071623,
    "di": 3013500,
    "region": "Occitanie",
    "department": "Hérault",
    "population": 40736
  },
  {
    "gid": 3037612,
    "name": "Anglet",
    "lat": 43.48921,
    "lon": -1.51921,
    "fc": "PPL",
    "type": "city",
    "ri": 11071620,
    "di": 2984887,
    "region": "Nouvelle-Aquitaine",
    "department": "Pyrénées-Atlantiques",
    "population": 40658
  },
  {
    "gid": 2985034,
    "name": "Puteaux",
    "lat": 48.88341,
    "lon": 2.23894,
    "fc": "PPL",
    "type": "city",
    "ri": 3012874,
    "di": 3013657,
    "region": "Île-de-France",
    "department": "Hauts-de-Seine",
    "population": 40646
  },
  {
    "gid": 3023763,
    "name": "Corbeil-Essonnes",
    "lat": 48.60603,
    "lon": 2.48757,
    "fc": "PPL",
    "type": "city",
    "ri": 3012874,
    "di": 3019599,
    "region": "Île-de-France",
    "department": "Essonne",
    "population": 40527
  },
  {
    "gid": 3016621,
    "name": "Garges-lès-Gonesse",
    "lat": 48.96791,
    "lon": 2.39781,
    "fc": "PPL",
    "type": "city",
    "ri": 3012874,
    "di": 2971071,
    "region": "Île-de-France",
    "department": "Val d'Oise",
    "population": 39847
  },
  {
    "gid": 2983362,
    "name": "Roanne",
    "lat": 46.03624,
    "lon": 4.06802,
    "fc": "PPLA3",
    "type": "city",
    "ri": 11071625,
    "di": 2997870,
    "region": "Auvergne-Rhône-Alpes",
    "department": "Loire",
    "population": 39840
  },
  {
    "gid": 2975525,
    "name": "Savigny-sur-Orge",
    "lat": 48.67677,
    "lon": 2.34835,
    "fc": "PPL",
    "type": "city",
    "ri": 3012874,
    "di": 3019599,
    "region": "Île-de-France",
    "department": "Essonne",
    "population": 39698
  },
  {
    "gid": 2998056,
    "name": "Livry-Gargan",
    "lat": 48.9193,
    "lon": 2.54305,
    "fc": "PPL",
    "type": "city",
    "ri": 3012874,
    "di": 2975246,
    "region": "Île-de-France",
    "department": "Seine-Saint-Denis",
    "population": 39518
  },
  {
    "gid": 3020035,
    "name": "Épinal",
    "lat": 48.18324,
    "lon": 6.45304,
    "fc": "PPLA2",
    "type": "city",
    "ri": 11071622,
    "di": 2967681,
    "region": "Grand Est",
    "department": "Vosges",
    "population": 39518
  },
  {
    "gid": 2977824,
    "name": "Saint-Ouen",
    "lat": 48.90654,
    "lon": 2.33339,
    "fc": "PPL",
    "type": "city",
    "ri": 3012874,
    "di": 2975246,
    "region": "Île-de-France",
    "department": "Seine-Saint-Denis",
    "population": 39353
  },
  {
    "gid": 2983770,
    "name": "Rezé",
    "lat": 47.19058,
    "lon": -1.56885,
    "fc": "PPL",
    "type": "city",
    "ri": 2988289,
    "di": 2997861,
    "region": "Pays de la Loire",
    "department": "Loire-Atlantique",
    "population": 39248
  },
  {
    "gid": 2992415,
    "name": "Montigny-le-Bretonneux",
    "lat": 48.76636,
    "lon": 2.03405,
    "fc": "PPL",
    "type": "city",
    "ri": 3012874,
    "di": 2967196,
    "region": "Île-de-France",
    "department": "Yvelines",
    "population": 39063
  },
  {
    "gid": 2990187,
    "name": "Noisy-le-Sec",
    "lat": 48.89148,
    "lon": 2.46451,
    "fc": "PPL",
    "type": "city",
    "ri": 3012874,
    "di": 2975246,
    "region": "Île-de-France",
    "department": "Seine-Saint-Denis",
    "population": 38955
  },
  {
    "gid": 2994651,
    "name": "Melun",
    "lat": 48.5457,
    "lon": 2.65356,
    "fc": "PPLA2",
    "type": "city",
    "ri": 3012874,
    "di": 2975249,
    "region": "Île-de-France",
    "department": "Seine-et-Marne",
    "population": 38953
  },
  {
    "gid": 3035409,
    "name": "Bagneux",
    "lat": 48.79565,
    "lon": 2.30796,
    "fc": "PPL",
    "type": "city",
    "ri": 3012874,
    "di": 3013657,
    "region": "Île-de-France",
    "department": "Hauts-de-Seine",
    "population": 38900
  },
  {
    "gid": 2995206,
    "name": "Massy",
    "lat": 48.72692,
    "lon": 2.28301,
    "fc": "PPL",
    "type": "city",
    "ri": 3012874,
    "di": 3019599,
    "region": "Île-de-France",
    "department": "Essonne",
    "population": 38768
  },
  {
    "gid": 3014078,
    "name": "Haguenau",
    "lat": 48.81557,
    "lon": 7.79051,
    "fc": "PPLA3",
    "type": "city",
    "ri": 11071622,
    "di": 3034720,
    "region": "Grand Est",
    "department": "Bas-Rhin",
    "population": 38721
  },
  {
    "gid": 2992017,
    "name": "Montrouge",
    "lat": 48.8162,
    "lon": 2.31393,
    "fc": "PPL",
    "type": "city",
    "ri": 3012874,
    "di": 3013657,
    "region": "Île-de-France",
    "department": "Hauts-de-Seine",
    "population": 38708
  },
  {
    "gid": 2995908,
    "name": "Marcq-en-Barœul",
    "lat": 50.66667,
    "lon": 3.08333,
    "fc": "PPL",
    "type": "city",
    "ri": 11071624,
    "di": 2990129,
    "region": "Hauts-de-France",
    "department": "Département du Nord",
    "population": 38629
  },
  {
    "gid": 2967870,
    "name": "Vitrolles",
    "lat": 43.46,
    "lon": 5.24861,
    "fc": "PPL",
    "type": "city",
    "ri": 2985244,
    "di": 3031359,
    "region": "Provence-Alpes-Côte d'Azur",
    "department": "Bouches-du-Rhône",
    "population": 38591
  },
  {
    "gid": 3020850,
    "name": "Draguignan",
    "lat": 43.53692,
    "lon": 6.46458,
    "fc": "PPLA3",
    "type": "city",
    "ri": 2985244,
    "di": 2970749,
    "region": "Provence-Alpes-Côte d'Azur",
    "department": "Var",
    "population": 38573
  },
  {
    "gid": 3003093,
    "name": "Lens",
    "lat": 50.43302,
    "lon": 2.82791,
    "fc": "PPLA3",
    "type": "city",
    "ri": 11071624,
    "di": 2988430,
    "region": "Hauts-de-France",
    "department": "Pas-de-Calais",
    "population": 38265
  },
  {
    "gid": 3016830,
    "name": "Gagny",
    "lat": 48.88333,
    "lon": 2.53333,
    "fc": "PPL",
    "type": "city",
    "ri": 3012874,
    "di": 2975246,
    "region": "Île-de-France",
    "department": "Seine-Saint-Denis",
    "population": 38134
  },
  {
    "gid": 2981206,
    "name": "Saint-Chamond",
    "lat": 45.4759,
    "lon": 4.51294,
    "fc": "PPL",
    "type": "city",
    "ri": 11071625,
    "di": 2997870,
    "region": "Auvergne-Rhône-Alpes",
    "department": "Loire",
    "population": 38014
  },
  {
    "gid": 3029931,
    "name": "Bron",
    "lat": 45.73865,
    "lon": 4.91303,
    "fc": "PPL",
    "type": "city",
    "ri": 11071625,
    "di": 2987410,
    "region": "Auvergne-Rhône-Alpes",
    "department": "Rhône",
    "population": 37825
  },
  {
    "gid": 2970456,
    "name": "Vaulx-en-Velin",
    "lat": 45.78693,
    "lon": 4.9251,
    "fc": "PPL",
    "type": "city",
    "ri": 11071625,
    "di": 2987410,
    "region": "Auvergne-Rhône-Alpes",
    "department": "Rhône",
    "population": 37489
  },
  {
    "gid": 3012219,
    "name": "Joué-lès-Tours",
    "lat": 47.34907,
    "lon": 0.66513,
    "fc": "PPL",
    "type": "city",
    "ri": 3027939,
    "di": 3012804,
    "region": "Centre-Val de Loire",
    "department": "Indre-et-Loire",
    "population": 37466
  },
  {
    "gid": 3038213,
    "name": "Alfortville",
    "lat": 48.80575,
    "lon": 2.4204,
    "fc": "PPL",
    "type": "city",
    "ri": 3012874,
    "di": 2971090,
    "region": "Île-de-France",
    "department": "Val-de-Marne",
    "population": 37290
  },
  {
    "gid": 3009824,
    "name": "La Courneuve",
    "lat": 48.92805,
    "lon": 2.39627,
    "fc": "PPL",
    "type": "city",
    "ri": 3012874,
    "di": 2975246,
    "region": "Île-de-France",
    "department": "Seine-Saint-Denis",
    "population": 37287
  },
  {
    "gid": 3026141,
    "name": "Châtellerault",
    "lat": 46.81705,
    "lon": 0.54518,
    "fc": "PPLA3",
    "type": "city",
    "ri": 11071620,
    "di": 2969280,
    "region": "Nouvelle-Aquitaine",
    "department": "Vienne",
    "population": 37210
  },
  {
    "gid": 2968482,
    "name": "Villepinte",
    "lat": 48.96203,
    "lon": 2.53253,
    "fc": "PPL",
    "type": "city",
    "ri": 3012874,
    "di": 2975246,
    "region": "Île-de-France",
    "department": "Seine-Saint-Denis",
    "population": 37114
  },
  {
    "gid": 3029030,
    "name": "Cambrai",
    "lat": 50.17596,
    "lon": 3.23472,
    "fc": "PPLA3",
    "type": "city",
    "ri": 11071624,
    "di": 2990129,
    "region": "Hauts-de-France",
    "department": "Département du Nord",
    "population": 36492
  },
  {
    "gid": 2986501,
    "name": "Poissy",
    "lat": 48.92902,
    "lon": 2.04952,
    "fc": "PPL",
    "type": "city",
    "ri": 3012874,
    "di": 2967196,
    "region": "Île-de-France",
    "department": "Yvelines",
    "population": 36431
  },
  {
    "gid": 3023924,
    "name": "Conflans-Sainte-Honorine",
    "lat": 49.00158,
    "lon": 2.09694,
    "fc": "PPL",
    "type": "city",
    "ri": 3012874,
    "di": 2967196,
    "region": "Île-de-France",
    "department": "Yvelines",
    "population": 36358
  },
  {
    "gid": 12808662,
    "name": "Sainte-Marguerite",
    "lat": 48.85232,
    "lon": 2.38932,
    "fc": "PPLX",
    "type": "city",
    "ri": 3012874,
    "di": 2968815,
    "region": "Île-de-France",
    "department": "Paris",
    "population": 36345
  },
  {
    "gid": 12808664,
    "name": "Bel-Air",
    "lat": 48.84169,
    "lon": 2.40489,
    "fc": "PPLX",
    "type": "city",
    "ri": 3012874,
    "di": 2968815,
    "region": "Île-de-France",
    "department": "Paris",
    "population": 36279
  },
  {
    "gid": 2992771,
    "name": "Mont-de-Marsan",
    "lat": 43.89022,
    "lon": -0.49713,
    "fc": "PPLA2",
    "type": "city",
    "ri": 11071620,
    "di": 3007866,
    "region": "Nouvelle-Aquitaine",
    "department": "Landes",
    "population": 36205
  },
  {
    "gid": 2986930,
    "name": "Plaisir",
    "lat": 48.82319,
    "lon": 1.9541,
    "fc": "PPL",
    "type": "city",
    "ri": 3012874,
    "di": 2967196,
    "region": "Île-de-France",
    "department": "Yvelines",
    "population": 36121
  },
  {
    "gid": 6543970,
    "name": "Lyon 04",
    "lat": 45.77507,
    "lon": 4.82712,
    "fc": "PPLX",
    "type": "city",
    "ri": 11071625,
    "di": 2987410,
    "region": "Auvergne-Rhône-Alpes",
    "department": "Rhône",
    "population": 36064
  },
  {
    "gid": 7284888,
    "name": "Marseille 07",
    "lat": 43.28289,
    "lon": 5.36021,
    "fc": "PPLA5",
    "type": "city",
    "ri": 2985244,
    "di": 3031359,
    "region": "Provence-Alpes-Côte d'Azur",
    "department": "Bouches-du-Rhône",
    "population": 35981
  },
  {
    "gid": 2995750,
    "name": "Marignane",
    "lat": 43.41727,
    "lon": 5.21462,
    "fc": "PPL",
    "type": "city",
    "ri": 2985244,
    "di": 3031359,
    "region": "Provence-Alpes-Côte d'Azur",
    "department": "Bouches-du-Rhône",
    "population": 35873
  },
  {
    "gid": 3021411,
    "name": "Dieppe",
    "lat": 49.9216,
    "lon": 1.07772,
    "fc": "PPLA3",
    "type": "city",
    "ri": 11071621,
    "di": 2975248,
    "region": "Normandie",
    "department": "Seine-Maritime",
    "population": 35707
  },
  {
    "gid": 2992703,
    "name": "Montélimar",
    "lat": 44.55468,
    "lon": 4.75469,
    "fc": "PPL",
    "type": "city",
    "ri": 11071625,
    "di": 3020781,
    "region": "Auvergne-Rhône-Alpes",
    "department": "Drôme",
    "population": 35637
  },
  {
    "gid": 2971874,
    "name": "Tremblay-en-France",
    "lat": 48.94956,
    "lon": 2.5684,
    "fc": "PPL",
    "type": "city",
    "ri": 3012874,
    "di": 2975246,
    "region": "Île-de-France",
    "department": "Seine-Saint-Denis",
    "population": 35591
  },
  {
    "gid": 3025055,
    "name": "Choisy-le-Roi",
    "lat": 48.76846,
    "lon": 2.41874,
    "fc": "PPL",
    "type": "city",
    "ri": 3012874,
    "di": 2971090,
    "region": "Île-de-France",
    "department": "Val-de-Marne",
    "population": 35590
  },
  {
    "gid": 2978317,
    "name": "Saint-Martin-d'Hères",
    "lat": 45.1787,
    "lon": 5.76281,
    "fc": "PPL",
    "type": "city",
    "ri": 11071625,
    "di": 3012715,
    "region": "Auvergne-Rhône-Alpes",
    "department": "Isère",
    "population": 35528
  },
  {
    "gid": 2996882,
    "name": "Mâcon",
    "lat": 46.31407,
    "lon": 4.82823,
    "fc": "PPLA2",
    "type": "city",
    "ri": 11071619,
    "di": 2976082,
    "region": "Bourgogne-Franche-Comté",
    "department": "Saône-et-Loire",
    "population": 35484
  },
  {
    "gid": 2983011,
    "name": "Romans-sur-Isère",
    "lat": 45.0496,
    "lon": 5.06602,
    "fc": "PPL",
    "type": "city",
    "ri": 11071625,
    "di": 3020781,
    "region": "Auvergne-Rhône-Alpes",
    "department": "Drôme",
    "population": 35002
  },
  {
    "gid": 2977246,
    "name": "Saint-Raphaël",
    "lat": 43.42332,
    "lon": 6.7735,
    "fc": "PPL",
    "type": "city",
    "ri": 2985244,
    "di": 2970749,
    "region": "Provence-Alpes-Côte d'Azur",
    "department": "Var",
    "population": 34918
  },
  {
    "gid": 3024195,
    "name": "Pontault-Combault",
    "lat": 48.79813,
    "lon": 2.60676,
    "fc": "PPL",
    "type": "city",
    "ri": 3012874,
    "di": 2975249,
    "region": "Île-de-France",
    "department": "Seine-et-Marne",
    "population": 34798
  },
  {
    "gid": 2974427,
    "name": "Six-Fours-les-Plages",
    "lat": 43.09174,
    "lon": 5.82465,
    "fc": "PPL",
    "type": "city",
    "ri": 2985244,
    "di": 2970749,
    "region": "Provence-Alpes-Côte d'Azur",
    "department": "Var",
    "population": 34779
  },
  {
    "gid": 2987967,
    "name": "Périgueux",
    "lat": 45.18691,
    "lon": 0.71439,
    "fc": "PPLA2",
    "type": "city",
    "ri": 11071620,
    "di": 3021042,
    "region": "Nouvelle-Aquitaine",
    "department": "Dordogne",
    "population": 34770
  },
  {
    "gid": 3036016,
    "name": "Aurillac",
    "lat": 44.92539,
    "lon": 2.43983,
    "fc": "PPLA2",
    "type": "city",
    "ri": 11071625,
    "di": 3028791,
    "region": "Auvergne-Rhône-Alpes",
    "department": "Cantal",
    "population": 34724
  },
  {
    "gid": 2990612,
    "name": "Neuilly-sur-Marne",
    "lat": 48.85373,
    "lon": 2.54903,
    "fc": "PPL",
    "type": "city",
    "ri": 3012874,
    "di": 2975246,
    "region": "Île-de-France",
    "department": "Seine-Saint-Denis",
    "population": 34465
  },
  {
    "gid": 2998431,
    "name": "Liévin",
    "lat": 50.4198,
    "lon": 2.78068,
    "fc": "PPL",
    "type": "city",
    "ri": 11071624,
    "di": 2988430,
    "region": "Hauts-de-France",
    "department": "Pas-de-Calais",
    "population": 34370
  },
  {
    "gid": 3038634,
    "name": "Agen",
    "lat": 44.20199,
    "lon": 0.62055,
    "fc": "PPLA2",
    "type": "city",
    "ri": 11071620,
    "di": 2997523,
    "region": "Nouvelle-Aquitaine",
    "department": "Lot-et-Garonne",
    "population": 34367
  },
  {
    "gid": 3017341,
    "name": "Franconville",
    "lat": 48.98333,
    "lon": 2.23333,
    "fc": "PPL",
    "type": "city",
    "ri": 3012874,
    "di": 2971071,
    "region": "Île-de-France",
    "department": "Val d'Oise",
    "population": 34284
  },
  {
    "gid": 2980558,
    "name": "Sainte-Geneviève-des-Bois",
    "lat": 48.64682,
    "lon": 2.31965,
    "fc": "PPL",
    "type": "city",
    "ri": 3012874,
    "di": 3019599,
    "region": "Île-de-France",
    "department": "Essonne",
    "population": 33689
  },
  {
    "gid": 2995150,
    "name": "Maubeuge",
    "lat": 50.27875,
    "lon": 3.97267,
    "fc": "PPL",
    "type": "city",
    "ri": 11071624,
    "di": 2990129,
    "region": "Hauts-de-France",
    "department": "Département du Nord",
    "population": 33684
  },
  {
    "gid": 3035403,
    "name": "Bagnolet",
    "lat": 48.86667,
    "lon": 2.41667,
    "fc": "PPL",
    "type": "city",
    "ri": 3012874,
    "di": 2975246,
    "region": "Île-de-France",
    "department": "Seine-Saint-Denis",
    "population": 33504
  },
  {
    "gid": 2975758,
    "name": "Saumur",
    "lat": 47.25931,
    "lon": -0.07808,
    "fc": "PPLA3",
    "type": "city",
    "ri": 2988289,
    "di": 2996663,
    "region": "Pays de la Loire",
    "department": "Maine-et-Loire",
    "population": 33229
  },
  {
    "gid": 3032797,
    "name": "Biarritz",
    "lat": 43.48055,
    "lon": -1.55684,
    "fc": "PPL",
    "type": "city",
    "ri": 11071620,
    "di": 2984887,
    "region": "Nouvelle-Aquitaine",
    "department": "Pyrénées-Atlantiques",
    "population": 33188
  },
  {
    "gid": 3010025,
    "name": "La Ciotat",
    "lat": 43.17476,
    "lon": 5.60449,
    "fc": "PPL",
    "type": "city",
    "ri": 2985244,
    "di": 3031359,
    "region": "Provence-Alpes-Côte d'Azur",
    "department": "Bouches-du-Rhône",
    "population": 33113
  },
  {
    "gid": 3020495,
    "name": "Échirolles",
    "lat": 45.14603,
    "lon": 5.71441,
    "fc": "PPL",
    "type": "city",
    "ri": 11071625,
    "di": 3012715,
    "region": "Auvergne-Rhône-Alpes",
    "department": "Isère",
    "population": 33088
  },
  {
    "gid": 2968748,
    "name": "Villefranche-sur-Saône",
    "lat": 45.98967,
    "lon": 4.71961,
    "fc": "PPLA3",
    "type": "city",
    "ri": 11071625,
    "di": 2987410,
    "region": "Auvergne-Rhône-Alpes",
    "department": "Rhône",
    "population": 32994
  },
  {
    "gid": 3026108,
    "name": "Châtenay-Malabry",
    "lat": 48.76507,
    "lon": 2.26655,
    "fc": "PPL",
    "type": "city",
    "ri": 3012874,
    "di": 3013657,
    "region": "Île-de-France",
    "department": "Hauts-de-Seine",
    "population": 32715
  },
  {
    "gid": 2973841,
    "name": "Stains",
    "lat": 48.95,
    "lon": 2.38333,
    "fc": "PPL",
    "type": "city",
    "ri": 3012874,
    "di": 2975246,
    "region": "Île-de-France",
    "department": "Seine-Saint-Denis",
    "population": 32601
  },
  {
    "gid": 3026083,
    "name": "Châtillon",
    "lat": 48.8024,
    "lon": 2.29346,
    "fc": "PPL",
    "type": "city",
    "ri": 3012874,
    "di": 3013657,
    "region": "Île-de-France",
    "department": "Hauts-de-Seine",
    "population": 32383
  },
  {
    "gid": 2969284,
    "name": "Vienne",
    "lat": 45.52569,
    "lon": 4.87484,
    "fc": "PPLA3",
    "type": "city",
    "ri": 11071625,
    "di": 3012715,
    "region": "Auvergne-Rhône-Alpes",
    "department": "Isère",
    "population": 32293
  },
  {
    "gid": 2975446,
    "name": "Schiltigheim",
    "lat": 48.60749,
    "lon": 7.74931,
    "fc": "PPL",
    "type": "city",
    "ri": 11071622,
    "di": 3034720,
    "region": "Grand Est",
    "department": "Bas-Rhin",
    "population": 32289
  },
  {
    "gid": 3000192,
    "name": "Les Mureaux",
    "lat": 48.99173,
    "lon": 1.90972,
    "fc": "PPL",
    "type": "city",
    "ri": 3012874,
    "di": 2967196,
    "region": "Île-de-France",
    "department": "Yvelines",
    "population": 32134
  },
  {
    "gid": 3002965,
    "name": "Le Perreux-sur-Marne",
    "lat": 48.85,
    "lon": 2.5,
    "fc": "PPL",
    "type": "city",
    "ri": 3012874,
    "di": 2971090,
    "region": "Île-de-France",
    "department": "Val-de-Marne",
    "population": 32015
  },
  {
    "gid": 3014143,
    "name": "Guyancourt",
    "lat": 48.77334,
    "lon": 2.07393,
    "fc": "PPL",
    "type": "city",
    "ri": 3012874,
    "di": 2967196,
    "region": "Île-de-France",
    "department": "Yvelines",
    "population": 31989
  },
  {
    "gid": 2988758,
    "name": "Palaiseau",
    "lat": 48.71828,
    "lon": 2.2498,
    "fc": "PPLA3",
    "type": "city",
    "ri": 3012874,
    "di": 3019599,
    "region": "Île-de-France",
    "department": "Essonne",
    "population": 31987
  },
  {
    "gid": 2980816,
    "name": "Saint-Dizier",
    "lat": 48.63773,
    "lon": 4.94892,
    "fc": "PPLA3",
    "type": "city",
    "ri": 11071622,
    "di": 3013757,
    "region": "Grand Est",
    "department": "Haute-Marne",
    "population": 31918
  },
  {
    "gid": 3022610,
    "name": "Creil",
    "lat": 49.25672,
    "lon": 2.48477,
    "fc": "PPL",
    "type": "city",
    "ri": 11071624,
    "di": 2989663,
    "region": "Hauts-de-France",
    "department": "Oise",
    "population": 31863
  },
  {
    "gid": 2970797,
    "name": "Vandœuvre-lès-Nancy",
    "lat": 48.66115,
    "lon": 6.17114,
    "fc": "PPL",
    "type": "city",
    "ri": 11071622,
    "di": 2994111,
    "region": "Grand Est",
    "department": "Meurthe et Moselle",
    "population": 31785
  },